City_ID,City,Country,Date,Lat,Lng,Max Temp,Humidity,Cloudiness,Wind Speed,Current Description,Rain inches (last 3hrs),Snow inches (last 3hrs)
0,Butaritari,KI,2020-05-09 22:24:32,3.07,172.79,83.12,81,0,11.25,clear sky,0,0
1,Itaqui,BR,2020-05-09 22:24:32,-29.13,-56.55,61.02,60,5,7.49,clear sky,0,0
2,Hermanus,ZA,2020-05-09 22:24:32,-34.42,19.23,64.99,64,0,1.01,clear sky,0,0
3,Grand Gaube,MU,2020-05-09 22:24:32,-20.01,57.66,71.01,83,0,1.99,clear sky,0,0
4,Punta Arenas,CL,2020-05-09 22:24:32,-53.15,-70.92,42.8,93,90,2.59,overcast clouds,0,0
5,Chokurdakh,RU,2020-05-09 22:24:32,70.63,147.92,23.99,98,47,4.99,scattered clouds,0,0
6,Namtsy,RU,2020-05-09 22:24:33,62.72,129.67,28.4,63,83,6.71,broken clouds,0,0
7,Yulara,AU,2020-05-09 22:24:33,-25.24,130.99,53.6,54,89,10.29,overcast clouds,0,0
8,Olafsvik,IS,2020-05-09 22:24:33,64.89,-23.71,37.94,68,1,2.51,clear sky,0,0
9,Porto Santo,PT,2020-05-09 22:24:33,33.07,-16.34,64.4,88,75,11.41,broken clouds,0,0
10,Strelka,RU,2020-05-09 22:24:33,58.07,93.03,51.08,88,96,4.97,overcast clouds,0,0
11,Lata,PT,2020-05-09 22:24:33,40.16,-8.33,55.99,91,35,1.99,scattered clouds,0,0
12,Lembeni,TZ,2020-05-09 22:24:33,-3.78,37.62,64.29,88,60,7.81,broken clouds,0,0
13,Busselton,AU,2020-05-09 22:24:33,-33.65,115.33,39.0,75,0,3.27,clear sky,0,0
14,Bambous Virieux,MU,2020-05-09 22:24:34,-20.34,57.76,75.2,78,40,9.17,scattered clouds,0,0
15,Vila,PT,2020-05-09 22:24:34,42.03,-8.16,57.0,93,75,3.36,broken clouds,0,0
16,Tuktoyaktuk,CA,2020-05-09 22:24:34,69.45,-133.04,35.6,74,40,19.46,scattered clouds,0,0
17,Tezu,IN,2020-05-09 22:24:34,27.92,96.17,71.42,52,0,3.8,clear sky,0,0
18,Quatre Cocos,MU,2020-05-09 22:24:34,-20.21,57.76,75.2,78,40,9.17,scattered clouds,0,0
19,Dikson,RU,2020-05-09 22:24:34,73.51,80.55,25.52,97,91,18.03,overcast clouds,0,0
20,Victoria,HK,2020-05-09 22:23:09,22.29,114.16,82.0,83,73,6.13,broken clouds,0,0
21,Hobart,AU,2020-05-09 22:21:06,-42.88,147.33,48.0,81,40,8.05,scattered clouds,0,0
22,Sur,OM,2020-05-09 22:24:35,22.57,59.53,85.32,40,0,6.4,clear sky,0,0
23,Albany,US,2020-05-09 22:20:03,42.6,-73.97,39.99,54,81,3.0,broken clouds,0,0
24,Luderitz,NA,2020-05-09 22:24:35,-26.65,15.16,57.2,82,0,1.12,clear sky,0,0
25,Sadiqabad,PK,2020-05-09 22:24:35,28.31,70.13,90.59,34,0,13.04,clear sky,0,0
26,Mehamn,NO,2020-05-09 22:24:35,71.04,27.85,29.8,90,91,6.71,overcast clouds,0,0
27,Bredasdorp,ZA,2020-05-09 22:24:35,-34.53,20.04,60.8,87,0,2.06,clear sky,0,0
28,Mahebourg,MU,2020-05-09 22:24:36,-20.41,57.7,75.2,78,40,9.17,scattered clouds,0,0
29,Praia Da Vitoria,PT,2020-05-09 22:24:36,38.73,-27.07,66.2,82,40,14.7,scattered clouds,0,0
30,Avarua,CK,2020-05-09 22:22:52,-21.21,-159.78,82.4,78,12,17.22,few clouds,0,0
31,Lebu,CL,2020-05-09 22:24:36,-37.62,-73.65,57.76,82,100,18.23,light rain,0,0
32,Saint-Pierre,RE,2020-05-09 22:24:36,-21.34,55.48,69.8,73,20,8.05,few clouds,0,0
33,Boueni,YT,2020-05-09 22:24:36,-12.9,45.08,78.8,94,53,2.24,light rain,0,0
34,Da Lat,VN,2020-05-09 22:24:36,11.95,108.44,62.17,98,46,1.41,scattered clouds,0,0
35,Moron,AR,2020-05-09 22:24:37,-34.65,-58.62,66.0,64,0,5.88,clear sky,0,0
36,Bethel,US,2020-05-09 22:24:37,41.37,-73.41,41.0,55,1,12.75,clear sky,0,0
37,Rikitea,PF,2020-05-09 22:24:37,-23.12,-134.97,75.51,70,87,3.44,overcast clouds,0,0
38,Sinnamary,GF,2020-05-09 22:24:37,5.38,-52.95,78.8,86,99,12.08,light rain,0,0
39,Carnarvon,AU,2020-05-09 22:24:37,-24.87,113.63,74.97,41,100,11.9,overcast clouds,0,0
40,Cape Town,ZA,2020-05-09 22:20:34,-33.93,18.42,59.0,100,75,3.36,fog,0,0
41,Esperance,AU,2020-05-09 22:24:37,-33.87,121.9,46.4,81,0,13.87,clear sky,0,0
42,Mataura,NZ,2020-05-09 22:24:38,-46.19,168.86,51.67,72,48,3.91,scattered clouds,0,0
43,Kaiyuan,CN,2020-05-09 22:24:38,23.7,103.3,67.37,72,0,2.3,clear sky,0,0
44,Port Alfred,ZA,2020-05-09 22:24:38,-33.59,26.89,61.0,96,0,1.01,clear sky,0,0
45,Manthani,IN,2020-05-09 22:24:38,18.65,79.67,89.01,34,28,9.28,scattered clouds,0,0
46,Los Llanos De Aridane,ES,2020-05-09 22:24:38,28.66,-17.92,68.0,72,19,14.99,few clouds,0,0
47,Taoudenni,ML,2020-05-09 22:24:38,22.68,-3.98,96.78,12,18,6.2,few clouds,0,0
48,Dubovka,RU,2020-05-09 22:24:38,49.06,44.83,46.4,93,0,11.18,clear sky,0,0
49,Ushuaia,AR,2020-05-09 22:24:38,-54.8,-68.3,44.6,81,88,6.93,overcast clouds,0,0
50,Kota Bahru,MY,2020-05-09 22:24:39,6.13,102.24,80.6,94,20,3.36,few clouds,0,0
51,Hilo,US,2020-05-09 22:24:28,19.73,-155.09,75.2,69,90,14.99,overcast clouds,0,0
52,Honningsvag,NO,2020-05-09 22:24:39,70.98,25.97,35.06,80,94,12.62,light snow,0,0
53,Ormara,PK,2020-05-09 22:24:39,25.21,64.64,81.46,83,23,8.97,few clouds,0,0
54,Saint-Philippe,RE,2020-05-09 22:24:39,-21.36,55.77,69.8,73,20,8.05,few clouds,0,0
55,Pemangkat,ID,2020-05-09 22:24:39,1.17,108.97,77.5,89,86,5.86,overcast clouds,0,0
56,Paime,CO,2020-05-09 22:24:39,5.37,-74.15,77.59,73,98,0.72,light rain,0,0
57,Tommot,RU,2020-05-09 22:24:40,58.96,126.29,35.47,83,38,0.02,scattered clouds,0,0
58,Tarakan,ID,2020-05-09 22:24:40,3.3,117.63,80.49,83,100,6.11,light rain,0,0
59,Nikolskoye,RU,2020-05-09 22:24:40,59.7,30.79,41.0,64,2,4.47,clear sky,0,0
60,Kohlu,PK,2020-05-09 22:24:40,29.9,69.25,76.1,23,0,4.45,clear sky,0,0
61,Basay,PH,2020-05-09 22:24:40,9.41,122.64,80.96,78,100,4.29,overcast clouds,0,0
62,Flinders,AU,2020-05-09 22:24:40,-34.58,150.86,53.01,60,0,5.01,clear sky,0,0
63,Nosy Varika,MG,2020-05-09 22:24:40,-20.58,48.53,69.71,90,67,7.49,light rain,0,0
64,Santa Maria,BR,2020-05-09 22:24:40,-29.68,-53.81,68.0,60,9,2.24,clear sky,0,0
65,Auki,SB,2020-05-09 22:24:41,-8.77,160.7,83.8,75,68,5.46,broken clouds,0,0
66,Atuona,PF,2020-05-09 22:24:41,-9.8,-139.03,80.62,79,39,18.23,light rain,0,0
67,Ancud,CL,2020-05-09 22:24:41,-41.87,-73.82,48.99,87,75,9.17,broken clouds,0,0
68,Dayong,CN,2020-05-09 22:24:41,25.02,118.29,77.0,100,81,4.47,light rain,0,0
69,Upernavik,GL,2020-05-09 22:24:41,72.79,-56.15,20.12,93,100,12.59,overcast clouds,0,0
70,Barrow,US,2020-05-09 22:24:42,71.29,-156.79,28.4,86,1,10.29,clear sky,0,0
71,Jamestown,US,2020-05-09 22:24:42,42.1,-79.24,37.0,69,90,19.46,light rain,0,0
72,Ekibastuz,KZ,2020-05-09 22:24:42,51.67,75.37,56.44,59,9,9.28,clear sky,0,0
73,Narasannapeta,IN,2020-05-09 22:24:42,18.42,84.05,82.22,84,0,7.2,clear sky,0,0
74,Susa,TN,2020-05-09 22:21:56,35.83,10.64,70.0,88,20,11.41,few clouds,0,0
75,Sioux Lookout,CA,2020-05-09 22:24:42,50.1,-91.92,42.8,45,75,8.05,broken clouds,0,0
76,New Norfolk,AU,2020-05-09 22:24:42,-42.78,147.06,48.0,82,15,1.01,few clouds,0,0
77,Port Elizabeth,ZA,2020-05-09 22:24:43,-33.92,25.57,60.8,93,0,4.7,mist,0,0
78,Bryan,US,2020-05-09 22:24:43,30.67,-96.37,75.0,43,1,8.05,clear sky,0,0
79,Adrar,MR,2020-05-09 22:24:43,20.5,-10.07,91.67,11,0,12.59,clear sky,0,0
80,Port Lincoln,AU,2020-05-09 22:24:43,-34.73,135.87,55.33,71,29,7.92,light rain,0,0
81,Vaini,TO,2020-05-09 22:24:43,-21.2,-175.2,84.2,83,75,16.11,broken clouds,0,0
82,Rosarito,MX,2020-05-09 22:24:43,32.33,-117.03,73.99,68,40,8.05,scattered clouds,0,0
83,Pedro Velho,BR,2020-05-09 22:24:44,-6.44,-35.22,74.53,87,10,8.08,clear sky,0,0
84,Kununurra,AU,2020-05-09 22:24:44,-15.77,128.73,73.4,69,90,8.46,overcast clouds,0,0
85,Bengkulu,ID,2020-05-09 22:24:44,-3.8,102.27,76.59,89,100,4.27,overcast clouds,0,0
86,Rio Gallegos,AR,2020-05-09 22:24:44,-51.62,-69.22,39.2,100,90,2.24,fog,0,0
87,Arraial Do Cabo,BR,2020-05-09 22:24:44,-22.97,-42.03,69.8,77,0,4.7,clear sky,0,0
88,Souillac,MU,2020-05-09 22:24:44,-20.52,57.52,75.2,78,40,9.17,scattered clouds,0,0
89,Sitka,US,2020-05-09 22:24:44,57.05,-135.33,69.8,28,75,11.41,broken clouds,0,0
90,Provideniya,RU,2020-05-09 22:24:45,64.38,-173.3,39.22,78,100,30.96,overcast clouds,0,0
91,Parrita,CR,2020-05-09 22:24:45,9.52,-84.32,80.6,74,40,9.17,shower rain,0,0
92,Chokwe,MZ,2020-05-09 22:24:45,-24.53,32.98,63.37,82,0,3.69,clear sky,0,0
93,Bluff,NZ,2020-05-09 22:24:45,-46.6,168.33,53.53,74,60,10.29,broken clouds,0,0
94,Kargat,RU,2020-05-09 22:24:45,55.2,80.28,56.68,66,0,4.32,clear sky,0,0
95,Tevaitoa,PF,2020-05-09 22:24:45,-16.78,-151.5,81.81,77,1,17.76,clear sky,0,0
96,Banda Aceh,ID,2020-05-09 22:24:46,5.56,95.32,78.15,89,100,7.65,overcast clouds,0,0
97,Puerto Ayora,EC,2020-05-09 22:24:46,-0.74,-90.35,84.2,70,20,20.8,few clouds,0,0
98,Yingcheng,CN,2020-05-09 22:24:46,30.95,113.55,62.6,88,31,2.24,scattered clouds,0,0
99,Pevek,RU,2020-05-09 22:24:46,69.7,170.31,37.72,74,100,12.5,overcast clouds,0,0
100,Coihaique,CL,2020-05-09 22:24:46,-45.58,-72.07,44.6,100,90,4.68,moderate rain,0,0
101,Westport,US,2020-05-09 22:24:47,41.14,-73.36,39.99,69,90,14.99,overcast clouds,0,0
102,Qaanaaq,GL,2020-05-09 22:24:47,77.48,-69.36,12.07,86,67,3.74,broken clouds,0,0
103,Kenai,US,2020-05-09 22:24:47,60.55,-151.26,60.8,38,1,20.8,clear sky,0,0
104,Sechura,PE,2020-05-09 22:24:47,-5.56,-80.82,79.72,59,8,16.64,clear sky,0,0
105,Fairbanks,US,2020-05-09 22:20:01,64.84,-147.72,70.0,24,1,4.7,clear sky,0,0
106,Oranjemund,NA,2020-05-09 22:24:47,-28.55,16.43,68.0,44,0,4.83,clear sky,0,0
107,Plettenberg Bay,ZA,2020-05-09 22:24:47,-34.05,23.37,65.71,54,3,2.66,clear sky,0,0
108,Piacabucu,BR,2020-05-09 22:24:47,-10.41,-36.43,78.19,73,78,7.61,broken clouds,0,0
109,Poum,NC,2020-05-09 22:24:48,-20.23,164.02,75.65,69,0,12.19,clear sky,0,0
110,Toora-Khem,RU,2020-05-09 22:24:48,52.47,96.11,34.25,82,0,1.68,clear sky,0,0
111,Tuatapere,NZ,2020-05-09 22:24:48,-46.13,167.68,56.19,78,90,7.2,overcast clouds,0,0
112,Damietta,EG,2020-05-09 22:24:48,31.42,31.81,68.0,82,0,13.87,clear sky,0,0
113,Wetteren,BE,2020-05-09 22:24:48,50.99,3.87,64.0,85,73,6.33,broken clouds,0,0
114,Kloulklubed,PW,2020-05-09 22:24:48,7.04,134.26,78.8,88,90,6.93,overcast clouds,0,0
115,Byron Bay,AU,2020-05-09 22:24:49,-28.65,153.62,64.4,88,0,6.49,clear sky,0,0
116,Damphu,BT,2020-05-09 22:24:49,27.07,90.11,61.9,58,0,5.46,clear sky,0,0
117,Komsomolskiy,UZ,2020-05-09 22:24:49,40.43,71.72,62.6,67,31,9.17,scattered clouds,0,0
118,Airai,TL,2020-05-09 22:24:49,-8.93,125.41,56.88,100,100,3.6,overcast clouds,0,0
119,Grand-Santi,GF,2020-05-09 22:24:49,4.25,-54.38,75.52,96,96,3.51,light rain,0,0
120,Pangody,RU,2020-05-09 22:24:49,65.85,74.49,32.85,92,66,8.99,broken clouds,0,0
121,Castro,BR,2020-05-09 22:24:50,-24.79,-50.01,54.19,84,0,3.6,clear sky,0,0
122,Karratha,AU,2020-05-09 22:24:50,-20.74,116.85,76.24,26,94,15.43,overcast clouds,0,0
123,Cameron Park,US,2020-05-09 22:24:50,38.67,-120.99,91.0,20,95,1.99,overcast clouds,0,0
124,Alice Springs,AU,2020-05-09 22:20:42,-23.7,133.88,48.2,66,45,1.12,scattered clouds,0,0
125,Salalah,OM,2020-05-09 22:24:50,17.02,54.09,82.4,83,20,3.36,few clouds,0,0
126,Valparaiso,CL,2020-05-09 22:22:21,-33.04,-71.63,62.6,63,11,6.93,few clouds,0,0
127,Leningradskiy,RU,2020-05-09 22:24:50,69.38,178.42,25.5,95,100,8.99,overcast clouds,0,0
128,Ballina,AU,2020-05-09 22:24:51,-28.87,153.57,64.4,88,0,9.37,clear sky,0,0
129,Jaumave,MX,2020-05-09 22:24:51,23.42,-99.38,82.99,47,75,13.87,broken clouds,0,0
130,Margate,GB,2020-05-09 22:24:51,51.38,1.39,57.0,80,57,11.81,broken clouds,0,0
131,Sao Joao Da Barra,BR,2020-05-09 22:24:51,-21.64,-41.05,71.6,73,40,6.96,scattered clouds,0,0
132,Hambantota,LK,2020-05-09 22:24:51,6.12,81.12,81.1,84,100,6.73,overcast clouds,0,0
133,Inuvik,CA,2020-05-09 22:24:51,68.35,-133.72,42.8,52,20,13.87,few clouds,0,0
134,Yellowknife,CA,2020-05-09 22:24:52,62.46,-114.35,37.4,44,20,12.75,few clouds,0,0
135,Coquimbo,CL,2020-05-09 22:24:52,-29.95,-71.34,55.4,87,75,9.17,broken clouds,0,0
136,Dinard,FR,2020-05-09 22:24:52,48.63,-2.06,60.01,100,40,6.93,mist,0,0
137,Port Blair,IN,2020-05-09 22:24:52,11.67,92.75,82.4,80,94,2.91,overcast clouds,0,0
138,Hami,CN,2020-05-09 22:24:52,42.8,93.45,54.39,35,0,5.55,clear sky,0,0
139,Leshukonskoye,RU,2020-05-09 22:24:52,64.9,45.76,38.34,91,2,6.17,clear sky,0,0
140,Georgetown,MY,2020-05-09 22:22:24,5.41,100.34,80.6,100,40,3.36,scattered clouds,0,0
141,Mar Del Plata,AR,2020-05-09 22:21:25,-38.0,-57.56,61.0,82,0,10.29,clear sky,0,0
142,Ugoofaaru,MV,2020-05-09 22:24:53,5.67,73.0,83.75,79,100,11.92,overcast clouds,0,0
143,Ribeira Grande,PT,2020-05-09 22:24:53,38.52,-28.7,64.15,90,94,19.28,overcast clouds,0,0
144,Miraflores,MX,2020-05-09 22:24:53,19.22,-98.81,71.6,43,75,9.17,light rain,0,0
145,Gasa,PS,2020-05-09 22:22:51,31.5,34.47,64.99,77,0,6.51,clear sky,0,0
146,Lavrentiya,RU,2020-05-09 22:24:53,65.58,-171.0,35.15,92,100,9.62,overcast clouds,0,0
147,San Patricio,MX,2020-05-09 22:24:53,19.22,-104.7,84.2,79,20,17.22,few clouds,0,0
148,Nelson Bay,AU,2020-05-09 22:22:27,-32.72,152.15,57.0,66,0,11.41,clear sky,0,0
149,Khabez,RU,2020-05-09 22:24:54,44.04,41.77,51.01,100,91,11.01,overcast clouds,0,0
150,Carutapera,BR,2020-05-09 22:24:54,-1.2,-46.02,77.14,91,78,5.61,light rain,0,0
151,Burnie,AU,2020-05-09 22:24:54,-41.07,145.92,51.01,70,2,15.99,clear sky,0,0
152,Itarema,BR,2020-05-09 22:24:54,-2.92,-39.92,78.26,85,5,6.08,light rain,0,0
153,Anaconda,US,2020-05-09 22:24:55,46.13,-112.94,57.2,28,1,5.82,clear sky,0,0
154,Longyearbyen,SJ,2020-05-09 22:24:55,78.22,15.64,17.6,57,20,12.75,few clouds,0,0
155,Saskylakh,RU,2020-05-09 22:24:55,71.92,114.08,21.33,97,100,13.47,light snow,0,0
156,Bilibino,RU,2020-05-09 22:24:55,68.05,166.44,36.45,82,100,9.91,overcast clouds,0,0
157,Anadyr,RU,2020-05-09 22:24:55,64.75,177.48,33.8,95,90,60.4,rain and snow,0,0
158,Dzaoudzi,YT,2020-05-09 22:24:55,-12.79,45.27,78.8,94,73,2.24,light rain,0,0
159,Shelburne,CA,2020-05-09 22:24:55,44.08,-80.2,39.2,48,90,16.11,overcast clouds,0,0
160,Kaduqli,SD,2020-05-09 22:24:56,11.02,29.72,85.84,35,100,1.66,overcast clouds,0,0
161,Itoman,JP,2020-05-09 22:24:56,26.12,127.67,77.0,94,40,8.05,scattered clouds,0,0
162,Marsh Harbour,BS,2020-05-09 22:24:56,26.54,-77.06,77.92,71,51,8.3,broken clouds,0,0
163,Faya,SA,2020-05-09 22:24:56,18.39,42.45,68.0,68,0,1.32,clear sky,0,0
164,Ilebo,CD,2020-05-09 22:24:56,-4.32,20.58,73.47,88,96,0.6,overcast clouds,0,0
165,Namatanai,PG,2020-05-09 22:24:56,-3.67,152.43,84.15,72,1,4.92,clear sky,0,0
166,Norman Wells,CA,2020-05-09 22:24:56,65.28,-126.83,46.4,52,5,16.11,clear sky,0,0
167,Rush,IE,2020-05-09 22:24:57,53.52,-6.09,52.0,87,20,8.05,few clouds,0,0
168,Samarai,PG,2020-05-09 22:24:57,-10.62,150.67,80.89,81,96,14.03,overcast clouds,0,0
169,Hithadhoo,MV,2020-05-09 22:24:57,-0.6,73.08,84.49,78,90,12.93,light rain,0,0
170,Chuy,UY,2020-05-09 22:24:57,-33.7,-53.46,57.42,69,80,6.58,broken clouds,0,0
171,Huarmey,PE,2020-05-09 22:24:57,-10.07,-78.15,71.71,73,35,10.98,scattered clouds,0,0
172,Lingao,CN,2020-05-09 22:24:57,19.91,109.69,81.37,84,84,3.98,broken clouds,0,0
173,Poso,ID,2020-05-09 22:24:57,-1.4,120.75,79.03,78,100,6.53,overcast clouds,0,0
174,Kodiak,US,2020-05-09 22:24:58,57.79,-152.41,44.6,93,90,5.82,light rain,0,0
175,Geraldton,AU,2020-05-09 22:24:58,-28.77,114.6,60.8,44,57,12.75,broken clouds,0,0
176,Severo-Kurilsk,RU,2020-05-09 22:24:58,50.68,156.12,33.46,91,94,17.81,overcast clouds,0,0
177,Nyurba,RU,2020-05-09 22:24:58,63.28,118.33,35.85,72,73,8.57,broken clouds,0,0
178,Labuhan,ID,2020-05-09 22:24:58,-6.88,112.21,75.92,89,95,7.99,overcast clouds,0,0
179,Jiuquan,CN,2020-05-09 22:24:58,39.74,98.52,45.93,49,1,8.21,clear sky,0,0
180,Talnakh,RU,2020-05-09 22:24:58,69.49,88.4,30.2,86,75,17.9,broken clouds,0,0
181,Tadine,NC,2020-05-09 22:24:59,-21.55,167.88,73.96,75,1,11.65,clear sky,0,0
182,Talaya,RU,2020-05-09 22:24:59,61.38,152.75,30.47,94,100,15.57,overcast clouds,0,0
183,Kapaa,US,2020-05-09 22:21:34,22.08,-159.32,80.6,61,40,17.22,scattered clouds,0,0
184,Wanning,CN,2020-05-09 22:24:59,18.8,110.4,79.75,92,21,9.82,few clouds,0,0
185,Half Moon Bay,US,2020-05-09 22:24:59,37.46,-122.43,73.0,82,40,10.29,haze,0,0
186,Nhulunbuy,AU,2020-05-09 22:25:00,-12.23,136.77,78.8,83,25,4.7,scattered clouds,0,0
187,Gubkinskiy,RU,2020-05-09 22:25:00,64.43,76.5,35.06,87,17,10.31,few clouds,0,0
188,Ponta Do Sol,PT,2020-05-09 22:25:00,32.67,-17.1,66.2,72,40,2.24,scattered clouds,0,0
189,Ust-Kan,RU,2020-05-09 22:21:05,50.93,84.76,47.21,55,0,3.2,clear sky,0,0
190,Kaduna,NG,2020-05-09 22:25:00,10.52,7.44,76.17,69,92,2.84,light rain,0,0
191,Saint-Francois,FR,2020-05-09 22:25:00,46.42,3.91,62.6,55,30,8.05,scattered clouds,0,0
192,Borazjan,IR,2020-05-09 22:24:59,29.27,51.22,88.25,22,99,7.25,overcast clouds,0,0
193,Mnogovershinnyy,RU,2020-05-09 22:25:00,53.94,139.92,36.64,81,0,4.38,clear sky,0,0
194,Glenluce,GB,2020-05-09 22:25:01,54.88,-4.81,53.01,91,100,1.99,overcast clouds,0,0
195,Ust-Nera,RU,2020-05-09 22:25:01,64.57,143.2,30.81,91,54,6.71,broken clouds,0,0
196,North Bend,US,2020-05-09 22:25:01,43.41,-124.22,75.99,82,1,10.29,clear sky,0,0
197,Yuancheng,CN,2020-05-09 22:25:01,36.65,107.79,49.26,49,0,4.85,clear sky,0,0
198,Malinovskiy,RU,2020-05-09 22:25:01,61.2,62.84,58.44,52,0,4.99,clear sky,0,0
199,Muisne,EC,2020-05-09 22:25:01,0.6,-80.03,82.4,83,75,11.41,broken clouds,0,0
200,Puerto Madryn,AR,2020-05-09 22:25:01,-42.77,-65.04,64.42,33,49,10.0,scattered clouds,0,0
201,Hasaki,JP,2020-05-09 22:25:02,35.73,140.83,68.0,88,75,8.05,light rain,0,0
202,Bontang,ID,2020-05-09 22:20:12,0.13,117.5,79.48,83,100,3.0,light rain,0,0
203,Egvekinot,RU,2020-05-09 22:25:02,66.32,-179.17,31.75,99,100,14.74,overcast clouds,0,0
204,Luena,AO,2020-05-09 22:25:02,-11.78,19.92,63.1,69,87,5.68,overcast clouds,0,0
205,Narsaq,GL,2020-05-09 22:25:02,60.92,-46.05,50.0,23,45,23.04,scattered clouds,0,0
206,Idenao,CM,2020-05-09 22:25:02,4.25,9.0,80.6,100,20,3.02,few clouds,0,0
207,Kaitangata,NZ,2020-05-09 22:25:02,-46.28,169.85,52.0,72,96,4.0,overcast clouds,0,0
208,Oktyabrskoye,RU,2020-05-09 22:25:03,43.06,44.74,48.2,100,100,4.47,light rain,0,0
209,Acapulco,MX,2020-05-09 22:20:39,16.86,-99.89,86.0,70,5,8.05,clear sky,0,0
210,Maragogi,BR,2020-05-09 22:25:03,-9.01,-35.22,77.52,75,82,6.55,broken clouds,0,0
211,San Cristobal,VE,2020-05-09 22:25:03,7.77,-72.22,84.2,51,75,23.04,broken clouds,0,0
212,Torbay,CA,2020-05-09 22:25:03,47.67,-52.73,46.99,93,90,31.09,overcast clouds,0,0
213,Vanimo,PG,2020-05-09 22:25:03,-2.67,141.3,81.16,82,85,5.35,light rain,0,0
214,Brae,GB,2020-05-09 22:25:03,60.4,-1.35,37.4,64,77,25.28,broken clouds,0,0
215,Muravlenko,RU,2020-05-09 22:25:04,63.79,74.52,40.87,85,45,12.66,scattered clouds,0,0
216,Mbouda,CM,2020-05-09 22:25:04,5.63,10.26,63.61,85,67,1.1,broken clouds,0,0
217,Buritizeiro,BR,2020-05-09 22:25:04,-17.35,-44.96,66.9,73,21,4.07,few clouds,0,0
218,Longjiang,CN,2020-05-09 22:25:04,47.33,123.18,57.09,49,68,7.92,light rain,0,0
219,Verkhnyaya Balkariya,RU,2020-05-09 22:25:04,43.13,43.46,46.4,93,75,4.47,light intensity shower rain,0,0
220,Hay River,CA,2020-05-09 22:25:04,60.82,-115.8,32.0,80,20,10.29,few clouds,0,0
221,Boguchany,RU,2020-05-09 22:25:04,58.38,97.45,51.03,84,100,6.49,overcast clouds,0,0
222,Saint George,US,2020-05-09 22:25:05,37.1,-113.58,91.99,8,1,4.7,clear sky,0,0
223,Nanortalik,GL,2020-05-09 22:25:05,60.14,-45.24,42.08,64,47,16.37,scattered clouds,0,0
224,Ilulissat,GL,2020-05-09 22:24:08,69.22,-51.1,32.0,82,100,3.36,light rain,0,0
225,Vardo,NO,2020-05-09 22:25:05,70.37,31.11,34.77,82,81,2.37,broken clouds,0,0
226,Cranbrook,CA,2020-05-09 22:22:38,49.5,-115.77,59.0,41,75,8.05,shower rain,0,0
227,Lorengau,PG,2020-05-09 22:25:05,-2.02,147.27,85.03,73,15,8.12,few clouds,0,0
228,Fort Nelson,CA,2020-05-09 22:25:05,58.81,-122.7,53.6,30,40,4.7,scattered clouds,0,0
229,Tessalit,ML,2020-05-09 22:25:06,20.2,1.01,83.55,14,3,1.95,clear sky,0,0
230,Klaksvik,FO,2020-05-09 22:25:06,62.23,-6.59,30.2,68,54,16.11,light snow,0,0
231,Mackay,AU,2020-05-09 22:25:06,-21.15,149.2,68.0,88,1,5.82,clear sky,0,0
232,Wajid,SO,2020-05-09 22:25:06,3.81,43.25,79.16,75,79,8.16,moderate rain,0,0
233,Humberto De Campos,BR,2020-05-09 22:25:06,-2.6,-43.46,77.23,90,26,5.17,scattered clouds,0,0
234,Lagoa,PT,2020-05-09 22:25:06,39.05,-27.98,63.46,91,99,23.8,overcast clouds,0,0
235,General Nakar,PH,2020-05-09 22:25:06,14.76,121.64,80.62,80,71,3.42,broken clouds,0,0
236,Codrington,AU,2020-05-09 22:25:06,-38.27,141.97,46.2,81,86,8.43,overcast clouds,0,0
237,Kavaratti,IN,2020-05-09 22:25:07,10.57,72.64,85.35,72,18,9.53,few clouds,0,0
238,Freeport,US,2020-05-09 22:21:28,40.66,-73.58,45.0,45,75,13.87,broken clouds,0,0
239,Waipawa,NZ,2020-05-09 22:25:07,-41.41,175.52,59.0,77,0,16.11,clear sky,0,0
240,Wildberg,DE,2020-05-09 22:25:07,48.62,8.75,59.0,72,95,2.24,overcast clouds,0,0
241,Prestea,GH,2020-05-09 22:25:07,5.43,-2.14,77.23,95,84,3.02,broken clouds,0,0
242,Santa Cruz De La Palma,ES,2020-05-09 22:25:07,28.68,-17.76,68.0,72,28,14.99,scattered clouds,0,0
243,Gold Coast,AU,2020-05-09 22:25:07,-28.0,153.43,72.0,93,0,2.24,clear sky,0,0
244,Kollam,IN,2020-05-09 22:25:08,8.88,76.6,82.4,83,75,2.24,mist,0,0
245,Ardakan,IR,2020-05-09 22:25:08,32.31,54.02,75.2,19,75,4.7,broken clouds,0,0
246,Tamale,GH,2020-05-09 22:25:08,9.4,-0.84,82.42,72,97,5.88,moderate rain,0,0
247,Tasiilaq,GL,2020-05-09 22:25:08,65.61,-37.64,32.0,89,100,14.99,overcast clouds,0,0
248,Noumea,NC,2020-05-09 22:23:18,-22.28,166.46,73.99,82,90,2.24,overcast clouds,0,0
249,Arshan,RU,2020-05-09 22:25:08,46.27,44.22,48.2,76,86,13.42,overcast clouds,0,0
250,Rio De Janeiro,BR,2020-05-09 22:21:41,-22.9,-43.21,71.6,73,40,8.05,scattered clouds,0,0
251,Darhan,MN,2020-05-09 22:25:09,49.49,105.92,39.25,70,41,3.22,scattered clouds,0,0
252,Khatanga,RU,2020-05-09 22:25:09,71.97,102.5,17.65,97,10,7.58,clear sky,0,0
253,Hamilton,US,2020-05-09 22:25:09,39.18,-84.53,55.0,27,1,6.93,clear sky,0,0
254,Riverton,US,2020-05-09 22:22:44,40.52,-111.94,73.99,28,1,9.17,clear sky,0,0
255,Ukiah,US,2020-05-09 22:25:09,39.15,-123.21,91.4,15,1,10.29,clear sky,0,0
256,Arcachon,FR,2020-05-09 22:25:09,44.59,-1.05,62.6,93,100,4.7,moderate rain,0,0
257,Iqaluit,CA,2020-05-09 22:25:09,63.75,-68.51,37.4,69,75,9.17,broken clouds,0,0
258,Majene,ID,2020-05-09 22:25:10,-3.54,118.97,78.19,87,99,8.99,light rain,0,0
259,Raton,US,2020-05-09 22:25:10,36.9,-104.44,68.0,20,1,14.99,clear sky,0,0
260,East London,ZA,2020-05-09 22:25:10,-33.02,27.91,65.53,79,13,6.87,few clouds,0,0
261,Barcelona,ES,2020-05-09 22:24:51,41.39,2.16,66.2,88,40,10.29,light rain,0,0
262,Watsa,CD,2020-05-09 22:25:10,3.04,29.54,65.52,100,99,1.57,overcast clouds,0,0
263,Bandarbeyla,SO,2020-05-09 22:25:10,9.49,50.81,82.29,75,0,8.57,clear sky,0,0
264,Cabo San Lucas,MX,2020-05-09 22:25:11,22.89,-109.91,91.4,9,40,11.41,scattered clouds,0,0
265,Padang,ID,2020-05-09 22:25:11,-0.95,100.35,79.14,70,91,3.31,overcast clouds,0,0
266,Oksfjord,NO,2020-05-09 22:25:11,70.24,22.35,32.0,88,71,13.87,broken clouds,0,0
267,Sola,VU,2020-05-09 22:25:11,-13.88,167.55,82.4,78,75,16.53,broken clouds,0,0
268,Port-Gentil,GA,2020-05-09 22:25:11,-0.72,8.78,80.6,94,20,4.7,few clouds,0,0
269,Fortuna,US,2020-05-09 22:25:11,40.6,-124.16,63.0,82,1,13.87,clear sky,0,0
270,Cap Malheureux,MU,2020-05-09 22:25:11,-19.98,57.61,71.01,83,0,1.99,clear sky,0,0
271,Thompson,CA,2020-05-09 22:25:12,55.74,-97.86,37.4,37,75,19.46,broken clouds,0,0
272,Cherskiy,RU,2020-05-09 22:25:12,68.75,161.3,40.19,78,100,8.61,overcast clouds,0,0
273,Iberia,US,2020-05-09 22:25:12,29.95,-91.75,66.2,55,90,11.41,overcast clouds,0,0
274,Riyadh,SA,2020-05-09 22:24:28,24.69,46.72,87.8,25,90,17.22,dust,0,0
275,Minab,IR,2020-05-09 22:25:12,27.15,57.08,78.8,74,42,4.7,scattered clouds,0,0
276,Bac Lieu,VN,2020-05-09 22:20:13,9.29,105.72,84.11,76,100,8.41,overcast clouds,0,0
277,Lompoc,US,2020-05-09 22:25:12,34.64,-120.46,66.99,82,90,4.7,overcast clouds,0,0
278,San Jose,US,2020-05-09 22:24:37,37.34,-121.89,82.99,47,20,12.75,few clouds,0,0
279,Yar-Sale,RU,2020-05-09 22:25:13,66.83,70.83,34.25,89,95,9.01,overcast clouds,0,0
280,Guerrero Negro,MX,2020-05-09 22:25:13,27.98,-114.06,77.14,43,0,14.41,clear sky,0,0
281,Pangnirtung,CA,2020-05-09 22:25:13,66.15,-65.71,30.29,93,100,6.71,light snow,0,0
282,Valkla,EE,2020-05-09 22:25:13,59.47,25.32,37.4,74,29,2.24,scattered clouds,0,0
283,Hobyo,SO,2020-05-09 22:25:13,5.35,48.53,83.79,78,64,9.24,broken clouds,0,0
284,Laguna De Perlas,NI,2020-05-09 22:25:13,12.34,-83.67,83.43,79,100,11.59,overcast clouds,0,0
285,Matara,LK,2020-05-09 22:25:13,5.95,80.54,80.01,89,100,4.7,overcast clouds,0,0
286,Vila Franca Do Campo,PT,2020-05-09 22:25:14,37.72,-25.43,62.6,88,75,16.11,broken clouds,0,0
287,Pangkalanbuun,ID,2020-05-09 22:24:48,-2.68,111.62,72.97,91,100,2.15,overcast clouds,0,0
288,Yining,CN,2020-05-09 22:25:14,29.04,114.56,59.99,89,2,1.01,clear sky,0,0
289,Emerald,AU,2020-05-09 22:24:54,-23.53,148.17,64.4,88,90,3.36,overcast clouds,0,0
290,Gornopravdinsk,RU,2020-05-09 22:25:14,60.05,69.9,58.62,55,4,6.64,clear sky,0,0
291,Cidreira,BR,2020-05-09 22:25:14,-30.18,-50.21,63.99,80,0,8.41,clear sky,0,0
292,Henties Bay,NA,2020-05-09 22:25:14,-22.12,14.28,70.72,48,0,8.7,clear sky,0,0
293,Mecca,SA,2020-05-09 22:25:15,21.43,39.83,83.07,60,95,1.77,overcast clouds,0,0
294,Chapais,CA,2020-05-09 22:25:15,49.78,-74.85,28.4,63,90,8.05,light snow,0,0
295,Ahuimanu,US,2020-05-09 22:25:15,21.44,-157.84,87.8,45,20,12.75,few clouds,0,0
296,Sambava,MG,2020-05-09 22:25:15,-14.27,50.17,74.73,86,68,12.68,light rain,0,0
297,Isangel,VU,2020-05-09 22:25:15,-19.55,169.27,73.4,94,20,13.82,few clouds,0,0
298,Jega,NG,2020-05-09 22:25:15,12.22,4.38,94.68,23,2,2.89,clear sky,0,0
299,Sao Filipe,CV,2020-05-09 22:25:15,14.9,-24.5,74.32,75,96,9.6,overcast clouds,0,0
300,Contamana,PE,2020-05-09 22:25:15,-7.33,-75.02,84.06,60,31,1.19,scattered clouds,0,0
301,Suez,EG,2020-05-09 22:25:16,29.97,32.53,68.11,61,1,10.89,clear sky,0,0
302,Tiksi,RU,2020-05-09 22:24:04,71.69,128.87,19.42,95,0,4.18,clear sky,0,0
303,Pacific Grove,US,2020-05-09 22:25:16,36.62,-121.92,64.4,63,1,12.75,clear sky,0,0
304,Haftoni,AZ,2020-05-09 22:25:16,38.76,48.76,59.0,100,75,6.93,light rain,0,0
305,Pyshchug,RU,2020-05-09 22:25:16,58.89,45.71,49.6,97,100,7.45,light rain,0,0
306,Boca Do Acre,BR,2020-05-09 22:25:17,-8.75,-67.4,79.48,68,14,0.76,few clouds,0,0
307,Saldanha,ZA,2020-05-09 22:25:17,-33.01,17.94,59.0,62,0,2.24,clear sky,0,0
308,Mount Pleasant,US,2020-05-09 22:25:17,32.79,-79.86,70.0,30,1,4.7,clear sky,0,0
309,Batemans Bay,AU,2020-05-09 22:25:17,-35.72,150.18,41.0,80,0,1.01,clear sky,0,0
310,Shahrud,IR,2020-05-09 22:25:17,36.42,54.98,65.95,36,100,0.74,overcast clouds,0,0
311,Novita,CO,2020-05-09 22:25:17,4.96,-76.61,82.2,86,93,3.02,light rain,0,0
312,Owando,CG,2020-05-09 22:25:17,-0.48,15.9,71.26,93,97,1.99,light rain,0,0
313,Cayenne,GF,2020-05-09 22:25:18,4.93,-52.33,77.0,100,90,12.06,overcast clouds,0,0
314,Minbu,MM,2020-05-09 22:25:18,20.18,94.88,83.44,45,0,2.84,clear sky,0,0
315,Thayetmyo,MM,2020-05-09 22:25:18,19.32,95.18,83.1,52,0,1.57,clear sky,0,0
316,Maumelle,US,2020-05-09 22:25:18,34.87,-92.4,70.0,38,0,1.01,clear sky,0,0
317,Hoshcha,UA,2020-05-09 22:25:18,50.6,26.67,49.33,86,63,4.7,broken clouds,0,0
318,Nuuk,GL,2020-05-09 22:25:18,64.18,-51.72,44.6,75,79,5.82,broken clouds,0,0
319,Puerto Escondido,MX,2020-05-09 22:25:18,15.85,-97.07,86.0,70,5,6.93,clear sky,0,0
320,Yeppoon,AU,2020-05-09 22:25:19,-23.13,150.73,64.4,93,9,3.96,clear sky,0,0
321,Golden,US,2020-05-09 22:23:31,39.76,-105.22,61.0,33,75,11.41,broken clouds,0,0
322,Kerrville,US,2020-05-09 22:23:41,30.05,-99.14,78.8,41,1,8.86,clear sky,0,0
323,Meadow Lake,US,2020-05-09 22:25:19,34.8,-106.54,82.99,8,40,4.7,scattered clouds,0,0
324,Naze,JP,2020-05-09 22:25:19,28.37,129.48,73.4,94,75,10.29,broken clouds,0,0
325,Talcahuano,CL,2020-05-09 22:25:19,-36.72,-73.12,57.2,100,90,9.17,overcast clouds,0,0
326,Tual,ID,2020-05-09 22:25:19,-5.67,132.75,82.71,81,14,18.95,few clouds,0,0
327,Dundalk,US,2020-05-09 22:24:48,39.25,-76.52,48.99,31,95,19.84,overcast clouds,0,0
328,Great Bend,US,2020-05-09 22:25:15,38.36,-98.76,64.99,34,20,5.82,few clouds,0,0
329,Kruisfontein,ZA,2020-05-09 22:25:20,-34.0,24.73,59.63,71,0,4.74,clear sky,0,0
330,Corinto,GR,2020-05-09 22:25:20,37.94,22.96,60.01,61,0,1.01,clear sky,0,0
331,La Sarre,CA,2020-05-09 22:24:48,48.8,-79.2,35.15,81,100,12.55,overcast clouds,0,0
332,Dingle,PH,2020-05-09 22:25:20,11.0,122.67,77.68,84,88,4.94,overcast clouds,0,0
333,Hargeysa,SO,2020-05-09 22:24:55,9.56,44.06,72.41,73,79,5.84,broken clouds,0,0
334,Dwarka,IN,2020-05-09 22:25:20,22.24,68.97,81.46,84,0,12.12,clear sky,0,0
335,Danville,US,2020-05-09 22:21:54,36.59,-79.39,60.8,23,1,14.99,clear sky,0,0
336,Camacha,PT,2020-05-09 22:25:21,33.08,-16.33,64.4,88,75,11.41,broken clouds,0,0
337,Uhlove,UA,2020-05-09 22:25:21,44.82,33.6,52.79,83,43,6.42,scattered clouds,0,0
338,Bahia Honda,CU,2020-05-09 22:25:21,22.9,-83.16,80.96,74,100,10.33,light rain,0,0
339,Port Keats,AU,2020-05-09 22:25:21,-14.25,129.55,73.69,59,36,6.55,scattered clouds,0,0
340,Santa Cruz,BO,2020-05-09 22:25:21,-17.8,-63.17,75.2,50,0,12.75,clear sky,0,0
341,San Quintin,MX,2020-05-09 22:25:21,30.48,-115.95,70.12,64,0,10.0,clear sky,0,0
342,Alofi,NU,2020-05-09 22:25:22,-19.06,-169.92,84.2,79,58,10.29,broken clouds,0,0
343,Stolin,BY,2020-05-09 22:25:22,51.89,26.85,48.29,86,37,3.85,scattered clouds,0,0
344,Farah,AF,2020-05-09 22:25:22,32.5,62.5,71.17,32,69,2.8,broken clouds,0,0
345,Kamina,CD,2020-05-09 22:25:22,-8.74,24.99,64.58,87,0,3.53,clear sky,0,0
346,Maungatapere,NZ,2020-05-09 22:25:22,-35.75,174.2,64.99,78,91,3.0,overcast clouds,0,0
347,Kirillov,RU,2020-05-09 22:25:22,59.86,38.38,44.19,80,73,4.27,broken clouds,0,0
348,Apatity,RU,2020-05-09 22:25:22,67.56,33.4,31.78,98,100,9.57,snow,0,0
349,Avera,US,2020-05-09 22:25:23,33.19,-82.53,68.0,34,1,8.05,clear sky,0,0
350,Coldwater,US,2020-05-09 22:23:26,41.94,-85.0,51.01,23,1,16.11,clear sky,0,0
351,Oranjestad,AW,2020-05-09 22:25:23,12.52,-70.03,84.2,70,20,28.86,few clouds,0,0
352,Sturgeon Bay,US,2020-05-09 22:25:23,44.83,-87.38,55.4,56,1,10.29,clear sky,0,0
353,Verkhnetulomskiy,RU,2020-05-09 22:25:23,68.61,31.8,32.0,98,75,2.24,light shower snow,0,0
354,Krasnoselkup,RU,2020-05-09 22:25:23,65.7,82.47,30.63,97,0,4.5,clear sky,0,0
355,Colomi,BO,2020-05-09 22:25:23,-17.35,-65.87,77.0,15,34,3.36,scattered clouds,0,0
356,Thessalon,CA,2020-05-09 22:25:24,46.25,-83.57,39.2,51,40,10.29,scattered clouds,0,0
357,Bathsheba,BB,2020-05-09 22:25:24,13.22,-59.52,80.6,69,40,19.46,scattered clouds,0,0
358,Mahajanga,MG,2020-05-09 22:25:24,-15.72,46.32,77.0,83,40,3.36,scattered clouds,0,0
359,Lodja,CD,2020-05-09 22:25:24,-3.48,23.43,71.19,96,97,1.45,moderate rain,0,0
360,Sorland,NO,2020-05-09 22:25:24,67.67,12.69,33.58,80,99,7.67,overcast clouds,0,0
361,Fare,PF,2020-05-09 22:25:24,-16.7,-151.02,81.68,79,1,16.71,clear sky,0,0
362,Yerbogachen,RU,2020-05-09 22:25:24,61.28,108.01,47.77,94,100,9.35,light rain,0,0
363,Bijie,CN,2020-05-09 22:25:25,27.31,105.29,55.67,79,91,1.45,overcast clouds,0,0
364,Rocha,UY,2020-05-09 22:25:25,-34.48,-54.33,53.64,79,46,7.38,scattered clouds,0,0
365,Abnub,EG,2020-05-09 22:25:25,27.27,31.15,71.6,43,0,9.17,clear sky,0,0
366,Saint-Augustin,CA,2020-05-09 22:25:25,51.23,-58.65,35.49,86,99,9.17,overcast clouds,0,0
367,Axim,GH,2020-05-09 22:25:25,4.87,-2.24,81.14,88,3,8.19,clear sky,0,0
368,Beruwala,LK,2020-05-09 22:25:25,6.48,79.98,81.27,84,100,1.25,overcast clouds,0,0
369,Ust-Kuyga,RU,2020-05-09 22:25:26,70.02,135.6,29.34,97,100,5.35,overcast clouds,0,0
370,Tiznit,MA,2020-05-09 22:25:26,29.58,-9.5,59.22,80,95,7.14,overcast clouds,0,0
371,Balkanabat,TM,2020-05-09 22:25:26,39.51,54.37,75.02,40,0,8.25,clear sky,0,0
372,Male,MV,2020-05-09 22:25:26,4.17,73.51,86.0,84,75,11.41,broken clouds,0,0
373,Kinablangan,PH,2020-05-09 22:25:26,7.69,126.55,79.66,82,100,5.55,light rain,0,0
374,Jiwani,PK,2020-05-09 22:25:26,25.05,61.74,83.3,74,75,6.82,broken clouds,0,0
375,Santa Catarina De Tepehuanes,MX,2020-05-09 22:25:26,25.35,-105.73,79.68,17,50,5.64,scattered clouds,0,0
376,Samana,DO,2020-05-09 22:25:26,19.21,-69.34,87.8,70,40,9.17,scattered clouds,0,0
377,Otane,NZ,2020-05-09 22:25:27,-39.88,176.63,56.1,77,12,3.38,few clouds,0,0
378,Xuanhua,CN,2020-05-09 22:25:27,40.61,115.04,54.55,35,2,12.88,clear sky,0,0
379,Tautira,PF,2020-05-09 22:25:27,-17.73,-149.15,86.0,70,42,6.93,scattered clouds,0,0
380,Changli,CN,2020-05-09 22:25:27,39.7,119.15,58.96,61,0,11.7,clear sky,0,0
381,Smithers,CA,2020-05-09 22:25:27,54.78,-127.17,71.6,19,40,13.87,scattered clouds,0,0
382,Rochester,US,2020-05-09 22:23:00,43.15,-77.62,41.0,44,75,14.99,broken clouds,0,0
383,Alim,PH,2020-05-09 22:25:28,9.56,122.49,81.12,76,100,4.54,overcast clouds,0,0
384,Krasnyy Chikoy,RU,2020-05-09 22:25:28,50.36,108.75,32.18,93,16,3.89,few clouds,0,0
385,Suntar,RU,2020-05-09 22:25:28,62.14,117.63,35.89,79,29,6.64,scattered clouds,0,0
386,Shahr-E Kord,IR,2020-05-09 22:25:28,32.33,50.86,57.2,62,75,9.17,broken clouds,0,0
387,Vodnyy,RU,2020-05-09 22:25:28,63.5,53.41,44.42,97,100,3.85,light rain,0,0
388,Yangmei,CN,2020-05-09 22:25:28,24.1,112.56,72.91,100,100,1.92,moderate rain,0,0
389,Ashqelon,IL,2020-05-09 22:25:29,31.67,34.57,64.99,77,3,6.55,clear sky,0,0
390,Vladicin Han,RS,2020-05-09 22:25:29,42.71,22.06,54.0,69,2,3.58,clear sky,0,0
391,Xining,CN,2020-05-09 22:25:29,36.62,101.77,40.55,64,49,2.37,scattered clouds,0,0
392,Saint Anthony,US,2020-05-09 22:25:29,45.02,-93.22,55.4,46,90,9.17,light rain,0,0
393,Bartica,GY,2020-05-09 22:25:30,6.4,-58.62,82.4,74,20,11.41,few clouds,0,0
394,Yuanping,CN,2020-05-09 22:25:30,38.72,112.76,53.2,44,0,4.79,clear sky,0,0
395,Baykit,RU,2020-05-09 22:25:30,61.67,96.37,51.84,73,82,10.58,broken clouds,0,0
396,San Felipe,VE,2020-05-09 22:25:30,10.34,-68.74,79.95,71,35,7.67,scattered clouds,0,0
397,Mildura,AU,2020-05-09 22:25:30,-34.2,142.15,44.01,100,35,4.7,scattered clouds,0,0
398,Kuryk,KZ,2020-05-09 22:25:31,43.2,51.65,62.62,64,23,11.99,few clouds,0,0
399,Vila Velha,BR,2020-05-09 22:25:31,-20.33,-40.29,68.0,82,17,7.72,few clouds,0,0
400,Inongo,CD,2020-05-09 22:25:31,-1.95,18.27,72.86,95,81,6.58,moderate rain,0,0
401,Stornoway,GB,2020-05-09 22:25:31,58.21,-6.39,42.8,81,40,23.04,light intensity shower rain,0,0
402,Oksbol,DK,2020-05-09 22:25:31,55.63,8.29,48.2,81,19,2.24,few clouds,0,0
403,Ratnagiri,IN,2020-05-09 22:25:31,16.98,73.3,79.83,84,0,7.2,clear sky,0,0
404,Tapes,BR,2020-05-09 22:25:32,-30.67,-51.4,62.49,67,0,4.65,clear sky,0,0
405,Vostok,RU,2020-05-09 22:25:32,46.49,135.88,44.4,95,100,3.65,moderate rain,0,0
406,Fuerte Olimpo,PY,2020-05-09 22:25:32,-21.04,-57.87,70.21,57,0,4.74,clear sky,0,0
407,Morant Bay,JM,2020-05-09 22:25:32,17.88,-76.41,86.0,74,20,26.4,few clouds,0,0
408,Beringovskiy,RU,2020-05-09 22:25:32,63.05,179.32,33.84,96,100,32.66,light rain,0,0
409,Dongsheng,CN,2020-05-09 22:25:32,39.82,109.98,42.85,52,0,15.9,clear sky,0,0
410,Khani,GE,2020-05-09 22:25:33,41.96,42.96,53.6,87,100,6.93,overcast clouds,0,0
411,Nanyang,CN,2020-05-09 22:24:36,32.99,112.53,52.9,85,0,5.35,clear sky,0,0
412,Champerico,GT,2020-05-09 22:25:33,14.3,-91.92,91.4,59,40,13.87,scattered clouds,0,0
413,San Julian,MX,2020-05-09 22:25:33,21.02,-102.17,77.4,26,56,8.52,broken clouds,0,0
414,Takoradi,GH,2020-05-09 22:25:33,4.88,-1.76,81.03,89,3,7.81,light rain,0,0
415,Katsuura,JP,2020-05-09 22:25:33,35.13,140.3,66.0,94,81,8.01,broken clouds,0,0
416,Rawson,AR,2020-05-09 22:25:33,-43.3,-65.1,63.5,34,22,10.83,few clouds,0,0
417,Shingu,JP,2020-05-09 22:25:34,33.73,135.98,65.55,98,100,7.61,moderate rain,0,0
418,Ambon,ID,2020-05-09 22:25:34,-3.7,128.18,78.8,88,40,5.82,scattered clouds,0,0
419,Whitianga,NZ,2020-05-09 22:25:34,-36.83,175.7,63.41,71,77,11.07,broken clouds,0,0
420,Ereymentau,KZ,2020-05-09 22:25:34,51.62,73.1,55.74,56,5,15.59,clear sky,0,0
421,Basoko,CD,2020-05-09 22:25:34,1.24,23.62,73.11,92,88,2.46,overcast clouds,0,0
422,Paamiut,GL,2020-05-09 22:25:34,61.99,-49.67,42.1,66,94,4.07,overcast clouds,0,0
423,Kenmare,IE,2020-05-09 22:25:34,51.88,-9.58,55.56,89,93,3.44,overcast clouds,0,0
424,Tura,IN,2020-05-09 22:25:35,25.52,90.22,74.05,43,0,3.33,clear sky,0,0
425,Goderich,CA,2020-05-09 22:25:35,43.75,-81.72,39.99,70,53,6.71,broken clouds,0,0
426,Nouadhibou,MR,2020-05-09 22:25:35,20.93,-17.03,67.53,76,45,25.01,scattered clouds,0,0
427,Dudinka,RU,2020-05-09 22:25:35,69.41,86.18,30.2,86,75,17.9,broken clouds,0,0
428,Kollo,NE,2020-05-09 22:25:35,13.3,2.34,95.0,24,11,1.12,few clouds,0,0
429,Bar Harbor,US,2020-05-09 22:25:35,44.39,-68.2,37.0,69,90,14.99,overcast clouds,0,0
430,Coahuayana,MX,2020-05-09 22:25:35,18.73,-103.68,87.8,45,40,11.41,scattered clouds,0,0
431,Saint-Denis,FR,2020-05-09 22:25:35,48.92,2.33,62.01,93,100,5.82,mist,0,0
432,Pisco,PE,2020-05-09 22:25:36,-13.7,-76.22,69.8,77,10,17.22,clear sky,0,0
433,Nedjo,ET,2020-05-09 22:25:36,9.5,35.5,61.66,82,100,2.17,overcast clouds,0,0
434,Bay Roberts,CA,2020-05-09 22:25:36,47.6,-53.26,53.01,22,100,4.0,light rain,0,0
435,Estelle,US,2020-05-09 22:25:36,29.85,-90.11,66.99,55,90,8.05,overcast clouds,0,0
436,Ahipara,NZ,2020-05-09 22:25:36,-35.17,173.17,61.99,70,98,5.5,overcast clouds,0,0
437,Iskateley,RU,2020-05-09 22:25:36,67.68,53.15,28.15,96,39,4.99,scattered clouds,0,0
438,Kilindoni,TZ,2020-05-09 22:25:37,-7.91,39.67,79.97,79,93,16.35,moderate rain,0,0
439,Sotnikovo,RU,2020-05-09 22:25:37,51.88,107.48,33.8,74,20,4.47,few clouds,0,0
440,Kenora,CA,2020-05-09 22:25:37,49.82,-94.43,44.6,39,75,13.87,broken clouds,0,0
441,Gizo,SB,2020-05-09 22:25:37,-8.1,156.84,83.71,80,82,13.98,light rain,0,0
442,Mitu,CO,2020-05-09 22:25:37,1.2,-70.17,78.39,95,98,0.56,moderate rain,0,0
443,Goshogawara,JP,2020-05-09 22:25:37,40.8,140.44,59.0,82,75,5.82,light rain,0,0
444,Hirara,JP,2020-05-09 22:25:38,24.8,125.28,78.8,88,40,5.82,scattered clouds,0,0
445,Katangli,RU,2020-05-09 22:25:38,51.71,143.23,39.27,76,0,6.58,clear sky,0,0
446,Kulhudhuffushi,MV,2020-05-09 22:25:38,6.62,73.07,82.71,77,100,5.35,overcast clouds,0,0
447,Pierre,US,2020-05-09 22:25:38,44.37,-100.35,39.2,69,90,35.57,overcast clouds,0,0
448,Clyde River,CA,2020-05-09 22:25:38,70.47,-68.59,14.0,85,90,12.75,overcast clouds,0,0
449,Vikhorevka,RU,2020-05-09 22:25:38,56.12,101.16,48.2,61,100,11.18,overcast clouds,0,0
450,Kotel,BG,2020-05-09 22:25:38,42.88,26.45,53.6,76,5,9.17,clear sky,0,0
451,Namie,JP,2020-05-09 22:25:39,37.48,141.0,62.01,98,51,6.29,broken clouds,0,0
452,Mayo,US,2020-05-09 22:23:32,38.89,-76.51,50.0,39,75,11.41,broken clouds,0,0
453,Kiunga,PG,2020-05-09 22:25:39,-6.12,141.29,75.88,96,76,2.06,broken clouds,0,0
454,Porrentruy,CH,2020-05-09 22:25:39,47.42,7.08,64.0,72,91,5.82,overcast clouds,0,0
455,Awjilah,LY,2020-05-09 22:25:39,29.11,21.29,69.13,22,10,6.89,clear sky,0,0
456,Bhan,PK,2020-05-09 22:25:39,26.56,67.72,86.41,50,29,7.38,scattered clouds,0,0
457,Tilichiki,RU,2020-05-09 22:25:39,60.47,166.1,31.68,100,100,9.78,overcast clouds,0,0
458,Sungaipenuh,ID,2020-05-09 22:25:39,-2.08,101.38,65.26,90,80,0.92,broken clouds,0,0
459,Saiha,IN,2020-05-09 22:25:40,22.48,92.97,66.94,56,0,3.69,clear sky,0,0
460,Kamaishi,JP,2020-05-09 22:25:40,39.27,141.88,58.01,75,91,6.82,overcast clouds,0,0
461,Balikpapan,ID,2020-05-09 22:25:40,-1.27,116.83,77.27,92,100,6.46,moderate rain,0,0
462,Bonaventure,CA,2020-05-09 22:25:40,48.05,-65.49,39.99,86,90,9.17,light snow,0,0
463,Belmonte,BR,2020-05-09 22:25:40,-15.86,-38.88,75.2,64,40,8.05,scattered clouds,0,0
464,Lake City,US,2020-05-09 22:22:04,30.19,-82.64,77.0,36,1,5.82,clear sky,0,0
465,Kayattar,IN,2020-05-09 22:25:40,8.95,77.8,84.97,71,76,4.7,broken clouds,0,0
466,Borovoy,RU,2020-05-09 22:25:41,55.43,86.08,53.6,62,8,2.24,clear sky,0,0
467,Kaoma,ZM,2020-05-09 22:25:41,-14.78,24.8,61.72,63,12,6.87,few clouds,0,0
468,Nemuro,JP,2020-05-09 22:25:41,43.32,145.57,46.83,72,100,11.25,overcast clouds,0,0
469,Deer Lake,CA,2020-05-09 22:25:41,49.17,-57.43,35.6,100,90,11.41,light rain,0,0
470,Tazovskiy,RU,2020-05-09 22:25:41,67.47,78.7,26.91,98,0,7.11,clear sky,0,0
471,Gat,IL,2020-05-09 22:23:27,31.61,34.76,64.99,77,11,3.04,few clouds,0,0
472,Uspenskoye,RU,2020-05-09 22:25:41,44.83,41.39,51.01,61,87,11.18,overcast clouds,0,0
473,Douentza,ML,2020-05-09 22:25:42,15.0,-2.95,94.51,15,92,2.57,overcast clouds,0,0
474,Pedernales,DO,2020-05-09 22:25:42,18.04,-71.74,87.01,54,100,12.19,overcast clouds,0,0
475,Hovd,MN,2020-05-09 22:25:42,48.01,91.64,40.68,55,0,0.83,clear sky,0,0
476,Shelopugino,RU,2020-05-09 22:25:42,51.65,117.56,36.97,76,10,6.13,clear sky,0,0
477,Chandler,US,2020-05-09 22:25:42,33.31,-111.84,102.0,14,75,5.82,broken clouds,0,0
478,Buraydah,SA,2020-05-09 22:25:42,26.33,43.98,80.6,69,75,13.87,broken clouds,0,0
479,Poya,NC,2020-05-09 22:25:42,-21.35,165.15,74.12,67,9,2.42,clear sky,0,0
480,Harper,LR,2020-05-09 22:25:42,4.38,-7.72,80.02,86,94,10.25,light rain,0,0
481,Rongcheng,CN,2020-05-09 22:25:43,30.63,117.85,62.35,84,25,0.85,scattered clouds,0,0
482,Brandon,US,2020-05-09 22:25:43,27.94,-82.29,87.01,61,40,6.93,scattered clouds,0,0
483,Eirunepe,BR,2020-05-09 22:25:43,-6.66,-69.87,80.69,69,100,0.78,overcast clouds,0,0
484,Comodoro Rivadavia,AR,2020-05-09 22:21:21,-45.87,-67.5,57.2,54,42,11.41,scattered clouds,0,0
485,Luwuk,ID,2020-05-09 22:25:43,-0.95,122.79,78.19,82,100,6.35,light rain,0,0
486,Modave,BE,2020-05-09 22:25:43,50.45,5.3,62.6,63,40,6.93,scattered clouds,0,0
487,Yerazgavors,AM,2020-05-09 22:25:43,40.7,43.75,44.6,87,90,5.19,overcast clouds,0,0
488,Laguna,US,2020-05-09 22:25:44,38.42,-121.42,91.99,14,1,6.93,clear sky,0,0
489,Waingapu,ID,2020-05-09 22:25:44,-9.66,120.26,76.35,83,68,8.5,broken clouds,0,0
490,Almaznyy,RU,2020-05-09 22:25:44,48.04,40.05,50.0,87,40,6.71,scattered clouds,0,0
491,Palmas De Monte Alto,BR,2020-05-09 22:25:44,-14.27,-43.16,67.08,75,100,5.77,overcast clouds,0,0
492,Asau,RO,2020-05-09 22:25:44,46.43,26.4,50.0,86,52,3.13,broken clouds,0,0
493,Atasu,KZ,2020-05-09 22:25:44,48.68,71.64,57.56,78,91,7.27,overcast clouds,0,0
494,Turukhansk,RU,2020-05-09 22:25:44,65.82,87.98,32.59,92,100,6.46,overcast clouds,0,0
495,Gimli,CA,2020-05-09 22:25:45,50.63,-96.99,46.99,38,93,13.0,overcast clouds,0,0
496,Kathmandu,NP,2020-05-09 22:25:45,27.72,85.32,64.4,88,40,3.36,scattered clouds,0,0
497,Sisimiut,GL,2020-05-09 22:25:45,66.94,-53.67,37.17,87,98,4.63,overcast clouds,0,0
498,Monte Escobedo,MX,2020-05-09 22:25:45,22.3,-103.58,74.25,26,37,5.84,scattered clouds,0,0
499,Pestyaki,RU,2020-05-09 22:25:45,56.71,42.67,49.75,94,97,8.32,overcast clouds,0,0
500,Lusambo,CD,2020-05-09 22:25:45,-4.97,23.45,73.09,86,87,2.19,overcast clouds,0,0
501,Mareeba,AU,2020-05-09 22:25:45,-17.0,145.43,73.4,73,38,8.05,scattered clouds,0,0
502,Taltal,CL,2020-05-09 22:25:46,-25.4,-70.48,61.11,76,74,3.47,broken clouds,0,0
503,Birzai,LT,2020-05-09 22:25:46,56.2,24.75,42.4,82,0,4.12,clear sky,0,0
504,Les Cayes,HT,2020-05-09 22:25:46,18.2,-73.75,82.53,74,100,10.13,overcast clouds,0,0
505,Lesogorsk,RU,2020-05-09 22:25:46,56.05,99.51,45.93,78,91,6.89,overcast clouds,0,0
506,Puerto Narino,CO,2020-05-09 22:25:47,-3.77,-70.38,80.6,83,75,5.82,broken clouds,0,0
507,Seoul,KR,2020-05-09 22:22:04,37.57,126.98,57.2,100,90,2.24,mist,0,0
508,Lincoln,US,2020-05-09 22:21:16,40.8,-96.67,57.2,58,75,20.8,light rain,0,0
509,Bol,TD,2020-05-09 22:25:47,13.46,14.71,86.59,32,0,12.55,clear sky,0,0
510,Birjand,IR,2020-05-09 22:25:47,32.87,59.22,55.4,37,27,6.93,scattered clouds,0,0
511,Bairiki,KI,2020-05-09 22:25:47,1.33,172.98,86.0,74,20,8.05,few clouds,0,0
512,Channelview,US,2020-05-09 22:25:48,29.78,-95.11,72.0,49,75,13.87,broken clouds,0,0
513,Caninde,BR,2020-05-09 22:25:48,-4.36,-39.31,74.68,79,64,2.24,broken clouds,0,0
514,Black Diamond,US,2020-05-09 22:25:48,47.31,-122.0,87.01,28,80,5.99,broken clouds,0,0
515,Longview,US,2020-05-09 22:25:48,32.5,-94.74,70.0,40,1,8.05,clear sky,0,0
516,Price,US,2020-05-09 22:25:48,39.6,-110.81,71.6,15,1,9.17,clear sky,0,0
517,Gdov,RU,2020-05-09 22:25:48,58.74,27.81,41.72,66,2,5.12,clear sky,0,0
518,Zhezkazgan,KZ,2020-05-09 22:25:49,47.8,67.71,57.33,83,7,6.73,clear sky,0,0
519,Maniitsoq,GL,2020-05-09 22:25:49,65.42,-52.9,40.66,70,93,15.39,overcast clouds,0,0
520,Youghal,IE,2020-05-09 22:25:49,51.95,-7.85,57.99,76,20,8.05,few clouds,0,0
521,Poroshkovo,UA,2020-05-09 22:25:49,48.67,22.75,50.0,63,42,3.85,scattered clouds,0,0
522,Songjianghe,CN,2020-05-09 22:25:49,42.19,127.48,50.27,95,100,3.53,light rain,0,0
523,Caravelas,BR,2020-05-09 22:25:49,-17.71,-39.25,71.38,71,16,9.06,few clouds,0,0
524,Norrtalje,SE,2020-05-09 22:25:49,59.76,18.7,44.01,73,28,5.99,scattered clouds,0,0
525,Mbanza-Ngungu,CD,2020-05-09 22:25:50,-5.25,14.87,71.33,92,100,2.04,overcast clouds,0,0
526,Lempaala,FI,2020-05-09 22:25:50,61.32,23.75,33.01,80,0,2.24,clear sky,0,0
527,Beyneu,KZ,2020-05-09 22:25:50,45.32,55.2,65.25,56,30,16.69,scattered clouds,0,0
528,Aksarka,RU,2020-05-09 22:25:50,66.56,67.8,35.55,86,100,5.93,overcast clouds,0,0
529,Ponta Delgada,PT,2020-05-09 22:21:15,37.73,-25.67,62.6,88,75,16.11,broken clouds,0,0
530,Rio Grande,BR,2020-05-09 22:25:50,-32.03,-52.1,61.0,80,6,11.07,clear sky,0,0
531,Kolpashevo,RU,2020-05-09 22:25:50,58.31,82.91,58.08,63,94,4.43,overcast clouds,0,0
532,Kahului,US,2020-05-09 22:25:51,20.89,-156.47,80.6,61,40,21.92,scattered clouds,0,0
533,Newport,GB,2020-05-09 22:25:51,51.59,-3.0,61.0,80,90,5.61,overcast clouds,0,0
534,Skelleftea,SE,2020-05-09 22:21:54,64.75,20.95,37.99,64,80,8.05,broken clouds,0,0
535,Zlobin,HR,2020-05-09 22:25:51,45.29,14.65,53.01,74,5,3.0,clear sky,0,0
536,Tateyama,JP,2020-05-09 22:25:51,34.98,139.87,66.99,100,84,8.99,broken clouds,0,0
537,La Antigua,CO,2020-05-09 22:25:52,6.72,-76.08,69.75,89,75,3.33,light rain,0,0
538,Wageningen,NL,2020-05-09 22:25:09,51.97,5.67,61.0,72,90,11.41,overcast clouds,0,0
539,Havelock,US,2020-05-09 22:25:52,34.88,-76.9,62.6,29,20,10.29,few clouds,0,0
540,Sulangan,PH,2020-05-09 22:25:52,11.14,123.72,83.46,80,100,9.33,overcast clouds,0,0
541,Anjiang,CN,2020-05-09 22:25:52,27.32,110.1,64.63,91,100,3.58,heavy intensity rain,0,0
542,Penukonda,IN,2020-05-09 22:25:52,14.08,77.58,85.6,35,48,10.87,scattered clouds,0,0
543,Ternate,ID,2020-05-09 22:25:52,0.8,127.4,82.69,76,49,4.16,scattered clouds,0,0
544,San Lawrenz,MT,2020-05-09 22:25:52,36.06,14.2,64.4,88,40,16.11,scattered clouds,0,0
545,Litovko,RU,2020-05-09 22:25:53,49.24,135.17,52.38,59,100,3.42,overcast clouds,0,0
546,Luau,AO,2020-05-09 22:25:53,-10.71,22.22,69.24,65,47,3.36,scattered clouds,0,0
547,Manzhouli,CN,2020-05-09 22:25:53,49.6,117.43,45.32,57,88,20.6,overcast clouds,0,0
548,Port Hawkesbury,CA,2020-05-09 22:25:53,45.62,-61.35,41.0,80,90,17.22,overcast clouds,0,0
549,Touros,BR,2020-05-09 22:25:05,-5.2,-35.46,78.8,78,40,4.7,scattered clouds,0,0
550,Kavieng,PG,2020-05-09 22:25:53,-2.57,150.8,84.43,75,2,8.75,clear sky,0,0
551,Porto Novo,BJ,2020-05-09 22:25:53,6.5,2.6,84.2,83,40,12.75,scattered clouds,0,0
552,Albania,AL,2020-05-09 22:25:54,41.0,20.0,53.6,81,0,2.24,clear sky,0,0
