City_ID,City,Country,Date,Lat,Lng,Max Temp,Humidity,Cloudiness,Wind Speed,Current Description,Rain inches (last 3hrs),Snow inches (last 3hrs)
0,Shingu,JP,2020-05-08 15:50:22,33.73,135.98,56.97,83,100,2.91,overcast clouds,0.000,0
1,Niquelandia,BR,2020-05-08 15:50:22,-14.47,-48.46,83.41,57,32,4.83,scattered clouds,0.000,0
2,Sioux Lookout,CA,2020-05-08 15:50:22,50.1,-91.92,28.4,54,75,12.75,broken clouds,0.000,0
3,Ostrovnoy,RU,2020-05-08 15:46:05,68.05,39.51,34.7,93,97,9.51,overcast clouds,0.000,0
4,Punta Arenas,CL,2020-05-08 15:50:23,-53.15,-70.92,42.8,93,81,9.17,broken clouds,0.000,0
5,Yabrud,SY,2020-05-08 15:50:23,33.97,36.66,86.0,17,96,11.41,overcast clouds,0.000,0
6,Kariba,ZW,2020-05-08 15:50:23,-16.52,28.8,71.4,60,0,3.13,clear sky,0.000,0
7,Airai,TL,2020-05-08 15:50:23,-8.93,125.41,56.53,84,7,3.13,clear sky,0.000,0
8,Usinsk,RU,2020-05-08 15:50:23,65.99,57.53,36.99,93,100,6.85,overcast clouds,0.000,0
9,Bluff,NZ,2020-05-08 15:50:23,-46.6,168.33,49.71,85,47,11.92,scattered clouds,0.000,0
10,Hasaki,JP,2020-05-08 15:50:24,35.73,140.83,55.4,76,41,5.82,scattered clouds,0.000,0
11,Hermanus,ZA,2020-05-08 15:50:24,-34.42,19.23,77.0,50,0,3.0,clear sky,0.000,0
12,Barrow,US,2020-05-08 15:50:24,71.29,-156.79,17.6,92,90,13.87,fog,0.000,0
13,Ushuaia,AR,2020-05-08 15:46:09,-54.8,-68.3,42.8,93,90,3.36,fog,0.000,0
14,Ilulissat,GL,2020-05-08 15:48:56,69.22,-51.1,32.0,84,5,12.75,clear sky,0.000,0
15,Bredasdorp,ZA,2020-05-08 15:46:16,-34.53,20.04,68.0,64,0,10.29,clear sky,0.000,0
16,Bengkulu,ID,2020-05-08 15:50:25,-3.8,102.27,77.4,86,100,5.08,overcast clouds,0.000,0
17,Busselton,AU,2020-05-08 15:50:25,-33.65,115.33,48.99,66,0,7.27,clear sky,0.000,0
18,Progress,US,2020-05-08 15:50:25,40.29,-76.83,46.4,75,90,5.82,light rain,0.000,0
19,Hilo,US,2020-05-08 15:50:25,19.73,-155.09,66.2,77,20,5.82,few clouds,0.000,0
20,Lompoc,US,2020-05-08 15:45:59,34.64,-120.46,69.01,63,1,34.45,clear sky,0.000,0
21,Victoria,HK,2020-05-08 15:47:17,22.29,114.16,82.0,84,0,8.63,clear sky,0.000,0
22,Guebwiller,FR,2020-05-08 15:50:25,47.92,7.2,82.4,28,89,5.82,overcast clouds,0.000,0
23,Witham,GB,2020-05-08 15:50:26,51.8,0.64,72.0,45,87,9.17,overcast clouds,0.000,0
24,Fukue,JP,2020-05-08 15:47:43,32.69,128.84,67.8,77,100,30.6,overcast clouds,0.000,0
25,Cidreira,BR,2020-05-08 15:50:26,-30.18,-50.21,65.71,57,22,1.32,few clouds,0.000,0
26,New Norfolk,AU,2020-05-08 15:50:26,-42.78,147.06,46.99,76,97,2.26,overcast clouds,0.000,0
27,Nangomba,TZ,2020-05-08 15:50:26,-10.9,38.5,72.03,70,2,2.21,clear sky,0.000,0
28,Berlevag,NO,2020-05-08 15:50:26,70.86,29.09,33.8,69,74,13.87,broken clouds,0.000,0
29,Beloha,MG,2020-05-08 15:50:27,-25.17,45.05,66.67,78,35,11.65,scattered clouds,0.000,0
30,Nikolskoye,RU,2020-05-08 15:50:27,59.7,30.79,55.0,37,82,11.18,broken clouds,0.000,0
31,Taoudenni,ML,2020-05-08 15:50:27,22.68,-3.98,109.27,10,76,8.88,broken clouds,0.000,0
32,Northam,GB,2020-05-08 15:50:27,51.03,-4.22,66.99,60,82,4.0,light rain,0.000,0
33,Tezu,IN,2020-05-08 15:50:27,27.92,96.17,71.2,56,43,4.97,scattered clouds,0.000,0
34,Katsuura,JP,2020-05-08 15:47:21,35.13,140.3,63.0,72,34,13.87,scattered clouds,0.000,0
35,Jamestown,US,2020-05-08 15:47:48,42.1,-79.24,37.4,51,90,10.29,overcast clouds,0.000,0
36,Norman Wells,CA,2020-05-08 15:47:41,65.28,-126.83,35.6,64,20,8.05,few clouds,0.000,0
37,Yellowknife,CA,2020-05-08 15:50:28,62.46,-114.35,35.6,79,90,11.41,overcast clouds,0.000,0
38,Sao Filipe,CV,2020-05-08 15:50:28,14.9,-24.5,75.2,72,99,13.11,overcast clouds,0.000,0
39,Saint-Philippe,RE,2020-05-08 15:46:02,-21.36,55.77,73.4,88,94,5.82,overcast clouds,0.000,0
40,Emba,KZ,2020-05-08 15:50:28,48.83,58.14,67.26,38,0,10.58,clear sky,0.000,0
41,Chumphon,TH,2020-05-08 15:50:28,10.33,98.83,78.15,91,98,0.87,overcast clouds,0.000,0
42,Arraial Do Cabo,BR,2020-05-08 15:50:29,-22.97,-42.03,75.2,69,75,10.29,broken clouds,0.000,0
43,Anadyr,RU,2020-05-08 15:50:29,64.75,177.48,39.2,94,40,22.37,scattered clouds,0.000,0
44,Kenora,CA,2020-05-08 15:48:46,49.82,-94.43,32.0,61,20,9.17,few clouds,0.000,0
45,Vilhena,BR,2020-05-08 15:47:35,-12.74,-60.15,76.73,59,11,5.08,few clouds,0.000,0
46,Huarmey,PE,2020-05-08 15:50:29,-10.07,-78.15,75.33,66,12,10.49,few clouds,0.000,0
47,Chota,PE,2020-05-08 15:50:29,-6.55,-78.65,68.0,52,75,5.82,broken clouds,0.000,0
48,Avarua,CK,2020-05-08 15:50:30,-21.21,-159.78,77.0,88,8,4.7,clear sky,0.000,0
49,Te Anau,NZ,2020-05-08 15:50:30,-45.42,167.72,47.71,83,48,2.26,scattered clouds,0.000,0
50,Albany,US,2020-05-08 15:50:30,42.6,-73.97,55.99,16,100,8.68,overcast clouds,0.000,0
51,Patrasaer,IN,2020-05-08 15:50:30,23.22,87.52,87.53,51,0,11.39,clear sky,0.000,0
52,Havre-Saint-Pierre,CA,2020-05-08 15:50:30,50.23,-63.6,44.6,88,90,11.41,overcast clouds,0.000,0
53,Mehamn,NO,2020-05-08 15:50:31,71.04,27.85,33.8,64,75,17.22,light shower snow,0.000,0
54,Kapaa,US,2020-05-08 15:50:31,22.08,-159.32,71.6,73,40,14.99,scattered clouds,0.000,0
55,Pierre,US,2020-05-08 15:49:25,44.37,-100.35,44.6,48,1,3.36,clear sky,0.000,0
56,Rikitea,PF,2020-05-08 15:50:31,-23.12,-134.97,75.49,71,31,10.65,scattered clouds,0.000,0
57,Flinders,AU,2020-05-08 15:50:31,-34.58,150.86,69.01,71,0,7.0,clear sky,0.000,0
58,Atuona,PF,2020-05-08 15:50:32,-9.8,-139.03,80.67,74,93,15.99,overcast clouds,0.000,0
59,Sharan,RU,2020-05-08 15:50:32,54.82,54.0,63.5,50,10,6.26,clear sky,0.000,0
60,Iqaluit,CA,2020-05-08 15:50:32,63.75,-68.51,30.2,50,75,12.75,broken clouds,0.000,0
61,Saskylakh,RU,2020-05-08 15:50:32,71.92,114.08,-2.16,92,39,1.86,scattered clouds,0.000,0
62,Port Alfred,ZA,2020-05-08 15:50:16,-33.59,26.89,64.99,93,1,3.0,clear sky,0.000,0
63,Cape Town,ZA,2020-05-08 15:46:44,-33.93,18.42,71.6,56,0,10.29,clear sky,0.000,0
64,Staryy Nadym,RU,2020-05-08 15:50:33,65.61,72.68,51.33,85,100,15.01,overcast clouds,0.000,0
65,Awjilah,LY,2020-05-08 15:50:33,29.11,21.29,86.18,13,0,15.73,clear sky,0.000,0
66,Barzas,RU,2020-05-08 15:50:33,55.72,86.32,59.0,33,0,3.31,clear sky,0.000,0
67,Hua Hin,TH,2020-05-08 15:50:33,12.57,99.96,84.97,76,96,10.36,overcast clouds,0.000,0
68,Hohhot,CN,2020-05-08 15:50:34,40.81,111.65,51.8,71,40,4.47,scattered clouds,0.000,0
69,Komsomolskiy,UZ,2020-05-08 15:50:34,40.43,71.72,75.2,41,99,4.7,overcast clouds,0.000,0
70,San Patricio,MX,2020-05-08 15:50:34,19.22,-104.7,77.0,73,20,5.79,haze,0.000,0
71,Ancud,CL,2020-05-08 15:50:25,-41.87,-73.82,57.99,100,90,18.34,overcast clouds,0.000,0
72,Araouane,ML,2020-05-08 15:47:59,18.9,-3.53,108.9,6,0,8.08,clear sky,0.000,0
73,Alta Floresta,BR,2020-05-08 15:50:34,-9.88,-56.09,80.28,73,100,4.97,overcast clouds,0.000,0
74,Ponta Do Sol,PT,2020-05-08 15:50:34,32.67,-17.1,73.4,60,20,19.46,few clouds,0.000,0
75,Zeya,RU,2020-05-08 15:50:35,53.75,127.27,41.16,63,0,3.31,clear sky,0.000,0
76,Butaritari,KI,2020-05-08 15:50:35,3.07,172.79,82.6,75,86,4.45,overcast clouds,0.000,0
77,Nanortalik,GL,2020-05-08 15:47:06,60.14,-45.24,40.78,74,99,7.31,overcast clouds,0.000,0
78,Saint Anthony,US,2020-05-08 15:50:35,45.02,-93.22,41.0,29,1,16.11,clear sky,0.000,0
79,Chokurdakh,RU,2020-05-08 15:50:35,70.63,147.92,19.51,96,100,8.66,overcast clouds,0.000,0
80,Puerto Ayora,EC,2020-05-08 15:45:53,-0.74,-90.35,80.6,83,20,17.22,few clouds,0.000,0
81,Dikson,RU,2020-05-08 15:50:36,73.51,80.55,34.07,98,100,23.33,overcast clouds,0.000,0
82,Ayan,RU,2020-05-08 15:50:36,56.45,138.17,30.34,98,100,11.81,light snow,0.000,0
83,Qaanaaq,GL,2020-05-08 15:50:36,77.48,-69.36,17.28,86,92,3.18,overcast clouds,0.000,0
84,Tuktoyaktuk,CA,2020-05-08 15:45:52,69.45,-133.04,14.0,78,5,17.22,clear sky,0.000,0
85,Namatanai,PG,2020-05-08 15:50:36,-3.67,152.43,80.26,76,10,5.17,clear sky,0.000,0
86,Nouadhibou,MR,2020-05-08 15:47:14,20.93,-17.03,77.0,53,0,20.8,dust,0.000,0
87,Dingle,PH,2020-05-08 15:50:37,11.0,122.67,80.1,76,73,4.79,broken clouds,0.000,0
88,Kodiak,US,2020-05-08 15:50:37,57.79,-152.41,44.6,87,90,16.11,light rain,0.000,0
89,Esperance,AU,2020-05-08 15:50:37,-33.87,121.9,50.0,87,75,6.93,broken clouds,0.000,0
90,Coquimbo,CL,2020-05-08 15:50:37,-29.95,-71.34,57.2,82,90,1.12,overcast clouds,0.000,0
91,Leningradskiy,RU,2020-05-08 15:50:37,69.38,178.42,23.54,88,13,3.96,few clouds,0.000,0
92,Ilebo,CD,2020-05-08 15:50:38,-4.32,20.58,80.67,77,52,1.66,light rain,0.000,0
93,Castro,BR,2020-05-08 15:46:03,-24.79,-50.01,63.81,45,19,5.61,few clouds,0.000,0
94,Changji,CN,2020-05-08 15:50:38,44.02,87.32,68.0,12,46,4.47,scattered clouds,0.000,0
95,Mar Del Plata,AR,2020-05-08 15:46:17,-38.0,-57.56,59.0,62,11,14.99,few clouds,0.000,0
96,Bage,BR,2020-05-08 15:50:38,-31.33,-54.11,64.4,48,0,9.17,clear sky,0.000,0
97,Husavik,IS,2020-05-08 15:50:39,66.04,-17.34,37.4,59,75,14.99,broken clouds,0.000,0
98,Champerico,GT,2020-05-08 15:50:39,14.3,-91.92,86.0,70,75,3.6,haze,0.000,0
99,Tasiilaq,GL,2020-05-08 15:50:39,65.61,-37.64,30.2,80,0,3.36,clear sky,0.000,0
100,Adrar,MR,2020-05-08 15:47:36,20.5,-10.07,102.29,12,81,10.13,broken clouds,0.000,0
101,Rawson,AR,2020-05-08 15:50:13,-43.3,-65.1,73.85,27,86,8.1,overcast clouds,0.000,0
102,Ribeira Grande,PT,2020-05-08 15:50:40,38.52,-28.7,64.4,72,40,23.04,scattered clouds,0.000,0
103,Veydelevka,RU,2020-05-08 15:47:04,50.15,38.45,53.64,82,68,6.24,moderate rain,0.000,0
104,Georgetown,MY,2020-05-08 15:47:59,5.41,100.34,80.6,94,40,6.85,thunderstorm,0.000,0
105,Meulaboh,ID,2020-05-08 15:46:36,4.14,96.13,76.87,89,100,4.79,overcast clouds,0.000,0
106,Fortuna,US,2020-05-08 15:46:47,40.6,-124.16,52.0,100,90,4.7,overcast clouds,0.000,0
107,Lucea,JM,2020-05-08 15:50:40,18.45,-78.17,84.99,74,20,16.11,few clouds,0.000,0
108,East London,ZA,2020-05-08 15:50:40,-33.02,27.91,69.57,86,21,9.78,few clouds,0.000,0
109,Kurilsk,RU,2020-05-08 15:50:41,45.23,147.88,43.92,64,100,10.96,overcast clouds,0.000,0
110,Candolim,IN,2020-05-08 15:50:41,15.52,73.76,86.0,74,40,8.05,scattered clouds,0.000,0
111,Cooma,AU,2020-05-08 15:50:41,-36.23,149.13,51.8,66,3,17.22,clear sky,0.000,0
112,Hobart,AU,2020-05-08 15:46:03,-42.88,147.33,50.0,81,100,5.82,overcast clouds,0.000,0
113,Ajaccio,FR,2020-05-08 15:50:41,42.0,8.92,73.4,64,100,8.05,overcast clouds,0.000,0
114,Coihaique,CL,2020-05-08 15:47:58,-45.58,-72.07,51.8,100,90,5.82,moderate rain,0.000,0
115,Povenets,RU,2020-05-08 15:50:42,62.85,34.83,45.25,58,75,3.22,broken clouds,0.000,0
116,Belmonte,BR,2020-05-08 15:50:42,-15.86,-38.88,75.2,78,75,9.17,broken clouds,0.000,0
117,Buritis,BR,2020-05-08 15:50:42,-15.62,-46.42,75.13,72,93,5.77,overcast clouds,0.000,0
118,Aykhal,RU,2020-05-08 15:46:11,66.0,111.5,17.6,61,97,6.71,overcast clouds,0.000,0
119,Severo-Kurilsk,RU,2020-05-08 15:50:42,50.68,156.12,33.44,92,61,13.51,broken clouds,0.000,0
120,Surt,LY,2020-05-08 15:50:43,31.21,16.59,67.24,68,0,16.08,clear sky,0.000,0
121,Kedrovyy,RU,2020-05-08 15:50:43,56.17,91.82,35.6,80,0,0.92,clear sky,0.000,0
122,Bambous Virieux,MU,2020-05-08 15:50:43,-20.34,57.76,75.2,88,20,3.36,few clouds,0.000,0
123,Provideniya,RU,2020-05-08 15:50:43,64.38,-173.3,33.03,86,59,18.86,broken clouds,0.000,0
124,Caluquembe,AO,2020-05-08 15:50:43,-13.78,14.68,69.75,54,18,3.38,few clouds,0.000,0
125,Hervey Bay,AU,2020-05-08 15:50:43,-25.3,152.85,69.01,77,11,3.0,few clouds,0.000,0
126,Manuk Mangkaw,PH,2020-05-08 15:50:44,4.8,119.85,84.94,72,8,4.88,clear sky,0.000,0
127,Mataura,NZ,2020-05-08 15:50:44,-46.19,168.86,44.67,94,51,3.58,broken clouds,0.000,0
128,Geraldton,AU,2020-05-08 15:47:32,-28.77,114.6,55.4,76,0,8.05,clear sky,0.000,0
129,Chuy,UY,2020-05-08 15:50:44,-33.7,-53.46,61.99,51,11,7.99,few clouds,0.000,0
130,Galle,LK,2020-05-08 15:50:44,6.04,80.22,83.05,80,95,4.5,light rain,0.000,0
131,Matara,LK,2020-05-08 15:50:45,5.95,80.54,81.9,83,84,4.79,light rain,0.000,0
132,Asyut,EG,2020-05-08 15:50:45,27.18,31.18,95.0,15,0,13.87,clear sky,0.000,0
133,Nara,JP,2020-05-08 15:49:11,34.69,135.8,64.99,27,100,4.85,overcast clouds,0.000,0
134,Senador Jose Porfirio,BR,2020-05-08 15:50:45,-2.59,-51.95,84.74,69,84,1.39,light rain,0.000,0
135,Lorengau,PG,2020-05-08 15:50:45,-2.02,147.27,81.82,79,100,3.6,overcast clouds,0.000,0
136,Aswan,EG,2020-05-08 15:50:46,24.09,32.91,94.12,9,81,9.48,broken clouds,0.000,0
137,Ulety,RU,2020-05-08 15:50:46,51.36,112.48,45.54,55,100,5.53,overcast clouds,0.000,0
138,Zhigansk,RU,2020-05-08 15:50:46,66.77,123.37,18.23,96,100,18.16,overcast clouds,0.000,0
139,Brigantine,US,2020-05-08 15:50:46,39.41,-74.36,57.2,58,1,11.41,clear sky,0.000,0
140,Hit,IQ,2020-05-08 15:50:46,33.64,42.83,85.62,17,0,13.02,clear sky,0.000,0
141,Puerto Madryn,AR,2020-05-08 15:46:09,-42.77,-65.04,74.43,27,84,7.56,broken clouds,0.000,0
142,Salalah,OM,2020-05-08 15:48:14,17.02,54.09,84.2,83,40,5.82,scattered clouds,0.000,0
143,Riyadh,SA,2020-05-08 15:50:47,24.69,46.72,91.4,15,96,10.29,overcast clouds,0.000,0
144,Ishigaki,JP,2020-05-08 15:50:47,24.34,124.16,76.98,84,0,11.36,clear sky,0.000,0
145,Lata,PT,2020-05-08 15:50:47,40.16,-8.33,66.0,77,70,4.0,light rain,0.000,0
146,Vostok,RU,2020-05-08 15:50:47,46.49,135.88,43.07,95,100,4.54,overcast clouds,0.000,0
147,Teahupoo,PF,2020-05-08 15:50:48,-17.83,-149.27,77.0,88,20,2.24,few clouds,0.000,0
148,Mashhad,IR,2020-05-08 15:46:12,36.3,59.61,77.0,27,20,11.41,few clouds,0.000,0
149,Tarko-Sale,RU,2020-05-08 15:50:48,64.92,77.78,48.18,77,96,10.67,overcast clouds,0.000,0
150,Nome,US,2020-05-08 15:47:01,64.5,-165.41,46.4,45,1,13.87,clear sky,0.000,0
151,Piacabucu,BR,2020-05-08 15:50:48,-10.41,-36.43,83.88,64,57,8.93,broken clouds,0.000,0
152,Lukhovka,RU,2020-05-08 15:50:48,54.15,45.26,60.39,85,100,5.1,light rain,0.000,0
153,Eslamshahr,IR,2020-05-08 15:50:49,35.56,51.23,75.2,26,0,16.11,clear sky,0.000,0
154,Hithadhoo,MV,2020-05-08 15:50:49,-0.6,73.08,85.62,78,59,15.48,broken clouds,0.000,0
155,Leshan,CN,2020-05-08 15:50:49,29.56,103.76,72.32,65,100,3.76,overcast clouds,0.000,0
156,Mana,GF,2020-05-08 15:50:49,5.66,-53.78,82.11,73,85,11.68,overcast clouds,0.000,0
157,San Cristobal,VE,2020-05-08 15:50:04,7.77,-72.22,93.2,38,40,20.8,scattered clouds,0.000,0
158,Nantucket,US,2020-05-08 15:50:49,41.28,-70.1,53.6,50,20,13.87,few clouds,0.000,0
159,Upernavik,GL,2020-05-08 15:50:49,72.79,-56.15,20.62,86,100,7.07,overcast clouds,0.000,0
160,Mayo,US,2020-05-08 15:48:16,38.89,-76.51,68.0,59,90,3.36,overcast clouds,0.000,0
161,Henties Bay,NA,2020-05-08 15:50:50,-22.12,14.28,68.0,75,0,4.0,clear sky,0.000,0
162,Sao Paulo De Olivenca,BR,2020-05-08 15:50:50,-3.38,-68.87,81.21,72,99,5.26,overcast clouds,0.000,0
163,Looc,PH,2020-05-08 15:50:50,12.26,121.99,82.56,74,38,5.99,scattered clouds,0.000,0
164,Chichli,IN,2020-05-08 15:50:50,22.83,78.82,90.79,12,66,3.65,broken clouds,0.000,0
165,Egvekinot,RU,2020-05-08 15:50:50,66.32,-179.17,31.21,91,85,13.13,overcast clouds,0.000,0
166,Itarema,BR,2020-05-08 15:50:50,-2.92,-39.92,85.68,72,94,7.54,overcast clouds,0.000,0
167,Maldonado,UY,2020-05-08 15:50:51,-34.67,-54.92,64.4,52,2,10.29,clear sky,0.000,0
168,Najran,SA,2020-05-08 15:50:51,17.49,44.13,91.4,21,20,11.41,few clouds,0.000,0
169,Mahebourg,MU,2020-05-08 15:46:24,-20.41,57.7,75.2,88,20,3.36,few clouds,0.000,0
170,Sakete,BJ,2020-05-08 15:50:51,6.74,2.66,87.8,74,20,12.75,few clouds,0.000,0
171,Bethel,US,2020-05-08 15:50:51,41.37,-73.41,53.01,37,75,5.82,broken clouds,0.000,0
172,Zyryanka,RU,2020-05-08 15:50:51,65.75,150.85,25.12,96,2,6.93,clear sky,0.000,0
173,San Lucas Toliman,GT,2020-05-08 15:50:52,14.63,-91.13,86.0,70,75,3.27,haze,0.000,0
174,Sao Felix Do Xingu,BR,2020-05-08 15:50:52,-6.64,-51.99,88.45,57,51,5.32,broken clouds,0.000,0
175,Touros,BR,2020-05-08 15:50:52,-5.2,-35.46,86.0,66,40,8.05,scattered clouds,0.000,0
176,Guerrero Negro,MX,2020-05-08 15:50:52,27.98,-114.06,72.23,50,0,3.04,clear sky,0.000,0
177,Teguise,ES,2020-05-08 15:50:52,29.06,-13.56,77.0,50,40,13.87,scattered clouds,0.000,0
178,Porto Murtinho,BR,2020-05-08 15:50:53,-21.7,-57.88,79.84,20,0,2.86,clear sky,0.000,0
179,Olafsvik,IS,2020-05-08 15:50:53,64.89,-23.71,38.3,69,0,7.36,clear sky,0.000,0
180,Bowen,AU,2020-05-08 15:50:53,-20.02,148.23,68.0,93,3,4.7,clear sky,0.000,0
181,Biak,ID,2020-05-08 15:50:53,-0.91,122.88,79.11,81,28,5.57,light rain,0.000,0
182,Terra Santa,BR,2020-05-08 15:50:53,-2.1,-56.49,85.24,79,100,1.86,moderate rain,0.000,0
183,Vila Velha,BR,2020-05-08 15:50:53,-20.33,-40.29,78.8,57,20,12.75,few clouds,0.000,0
184,Krasnoselkup,RU,2020-05-08 15:50:54,65.7,82.47,41.13,95,67,9.17,broken clouds,0.000,0
185,Kaitangata,NZ,2020-05-08 15:50:54,-46.28,169.85,51.01,82,81,3.0,broken clouds,0.000,0
186,Kruisfontein,ZA,2020-05-08 15:50:54,-34.0,24.73,59.34,96,0,0.87,clear sky,0.000,0
187,Uvalde,US,2020-05-08 15:50:54,29.37,-99.77,80.6,61,40,6.93,scattered clouds,0.000,0
188,Isangel,VU,2020-05-08 15:50:54,-19.55,169.27,73.4,88,75,14.03,broken clouds,0.000,0
189,Oistins,BB,2020-05-08 15:50:55,13.07,-59.53,87.8,62,40,21.92,scattered clouds,0.000,0
190,Lebu,CL,2020-05-08 15:50:55,-37.62,-73.65,62.01,73,100,11.34,overcast clouds,0.000,0
191,Port Lincoln,AU,2020-05-08 15:47:08,-34.73,135.87,51.98,82,44,30.69,moderate rain,0.000,0
192,Mayumba,GA,2020-05-08 15:50:55,-3.43,10.66,81.46,85,36,7.18,light rain,0.000,0
193,Souillac,MU,2020-05-08 15:50:55,-20.52,57.52,75.2,88,20,3.36,few clouds,0.000,0
194,Beyneu,KZ,2020-05-08 15:50:55,45.32,55.2,75.94,39,23,10.74,few clouds,0.000,0
195,Aklavik,CA,2020-05-08 15:50:56,68.22,-135.01,33.8,59,5,10.29,clear sky,0.000,0
196,Teya,RU,2020-05-08 15:50:56,60.38,92.63,42.15,72,99,3.67,overcast clouds,0.000,0
197,Khatanga,RU,2020-05-08 15:50:56,71.97,102.5,18.25,94,67,17.47,broken clouds,0.000,0
198,Pombas,CV,2020-05-08 15:50:56,17.15,-25.02,80.6,51,20,32.21,few clouds,0.000,0
199,Lengshuitan,CN,2020-05-08 15:50:56,26.41,111.6,72.3,77,98,6.4,light rain,0.000,0
200,Narsaq,GL,2020-05-08 15:50:56,60.92,-46.05,51.8,53,20,5.82,few clouds,0.000,0
201,Cherskiy,RU,2020-05-08 15:50:57,68.75,161.3,24.87,93,32,5.08,scattered clouds,0.000,0
202,Hofn,IS,2020-05-08 15:50:57,64.25,-15.21,44.6,39,20,20.8,few clouds,0.000,0
203,Vigia,BR,2020-05-08 15:50:57,-0.86,-48.14,84.2,79,75,5.82,broken clouds,0.000,0
204,Longyearbyen,SJ,2020-05-08 15:50:57,78.22,15.64,28.4,68,40,8.05,scattered clouds,0.000,0
205,Klaksvik,FO,2020-05-08 15:50:57,62.23,-6.59,42.8,71,97,14.99,overcast clouds,0.000,0
206,Noyabrsk,RU,2020-05-08 15:50:57,63.2,75.45,63.95,48,100,13.35,overcast clouds,0.000,0
207,Misratah,LY,2020-05-08 15:50:58,32.38,15.09,67.89,59,16,16.33,few clouds,0.000,0
208,Luanda,AO,2020-05-08 15:49:23,-8.84,13.23,84.2,79,70,6.93,broken clouds,0.000,0
209,Buala,SB,2020-05-08 15:50:58,-8.14,159.59,80.58,82,61,2.42,light rain,0.000,0
210,Vaini,TO,2020-05-08 15:50:58,-21.2,-175.2,78.8,94,75,6.93,broken clouds,0.000,0
211,Bristol,US,2020-05-08 15:50:58,41.83,-71.17,55.99,29,20,9.17,few clouds,0.000,0
212,Marawi,PH,2020-05-08 15:50:59,8.0,124.29,82.0,78,72,4.0,broken clouds,0.000,0
213,Killybegs,IE,2020-05-08 15:50:59,54.63,-8.45,60.8,72,40,6.93,scattered clouds,0.000,0
214,Xichang,CN,2020-05-08 15:50:59,27.9,102.26,66.09,43,7,4.03,clear sky,0.000,0
215,Kaltasy,RU,2020-05-08 15:50:59,55.97,54.8,63.43,51,45,6.6,scattered clouds,0.000,0
216,San Policarpo,PH,2020-05-08 15:50:59,12.18,125.51,81.57,78,94,6.6,overcast clouds,0.000,0
217,Palmer,US,2020-05-08 15:47:18,42.16,-72.33,55.0,25,75,12.75,broken clouds,0.000,0
218,Gizo,SB,2020-05-08 15:51:00,-8.1,156.84,82.26,77,37,6.91,scattered clouds,0.000,0
219,Juba,SS,2020-05-08 15:51:00,4.85,31.58,80.26,75,71,1.92,light rain,0.000,0
220,Sembe,CG,2020-05-08 15:51:00,1.65,14.58,76.12,86,100,2.48,light rain,0.000,0
221,Praya,CV,2020-05-08 15:51:00,14.92,-23.51,80.6,57,40,27.51,scattered clouds,0.000,0
222,Phan Thiet,VN,2020-05-08 15:51:00,10.93,108.1,80.31,83,71,2.01,broken clouds,0.000,0
223,Garowe,SO,2020-05-08 15:51:00,8.41,48.48,90.01,35,29,7.63,scattered clouds,0.000,0
224,Deqing,CN,2020-05-08 15:51:01,30.54,119.96,77.0,89,62,9.86,light rain,0.000,0
225,Roebourne,AU,2020-05-08 15:51:01,-20.78,117.13,76.98,64,0,7.56,clear sky,0.000,0
226,Camana,PE,2020-05-08 15:51:01,-16.62,-72.71,72.34,65,98,8.03,overcast clouds,0.000,0
227,Omboue,GA,2020-05-08 15:51:01,-1.57,9.26,82.45,77,100,7.36,overcast clouds,0.000,0
228,Lethem,GY,2020-05-08 15:51:02,3.38,-59.8,87.91,59,98,8.39,overcast clouds,0.000,0
229,Turochak,RU,2020-05-08 15:51:02,52.26,87.12,45.77,61,0,2.91,clear sky,0.000,0
230,Cururupu,BR,2020-05-08 15:51:02,-1.83,-44.87,85.15,79,86,3.65,light rain,0.000,0
231,Bonavista,CA,2020-05-08 15:47:33,48.65,-53.11,35.83,98,100,12.1,light rain,0.000,0
232,Presidencia Roque Saenz Pena,AR,2020-05-08 15:51:02,-26.79,-60.44,68.14,32,0,7.09,clear sky,0.000,0
233,Nongan,CN,2020-05-08 15:51:03,44.38,125.17,55.4,76,40,11.18,scattered clouds,0.000,0
234,Pameungpeuk,ID,2020-05-08 15:51:03,-7.02,107.6,73.58,80,98,2.06,overcast clouds,0.000,0
235,Torbay,CA,2020-05-08 15:51:03,47.67,-52.73,48.2,87,90,12.75,light intensity drizzle,0.000,0
236,Mawlaik,MM,2020-05-08 15:51:03,23.63,94.42,81.36,41,0,3.27,clear sky,0.000,0
237,Homer,US,2020-05-08 15:48:55,59.64,-151.55,46.4,61,75,12.75,broken clouds,0.000,0
238,Kahama,TZ,2020-05-08 15:51:04,-3.83,32.6,70.05,76,78,3.58,broken clouds,0.000,0
239,Karanganyar,ID,2020-05-08 15:51:04,-6.71,111.08,79.5,87,15,2.39,few clouds,0.000,0
240,Pahrump,US,2020-05-08 15:50:18,36.21,-115.98,80.01,10,49,5.01,scattered clouds,0.000,0
241,Grand Gaube,MU,2020-05-08 15:51:04,-20.01,57.66,73.99,85,3,3.0,clear sky,0.000,0
242,Banepa,NP,2020-05-08 15:51:04,27.63,85.52,64.4,82,20,3.36,few clouds,0.000,0
243,Banda Aceh,ID,2020-05-08 15:51:04,5.56,95.32,79.39,88,100,10.78,light rain,0.000,0
244,Moose Factory,CA,2020-05-08 15:51:05,51.26,-80.61,24.8,73,90,12.75,light snow,0.000,0
245,Sandeid,NO,2020-05-08 15:51:05,59.54,5.86,48.99,72,89,3.0,overcast clouds,0.000,0
246,Morant Bay,JM,2020-05-08 15:49:08,17.88,-76.41,87.8,70,40,24.16,scattered clouds,0.000,0
247,Namibe,AO,2020-05-08 15:51:05,-15.2,12.15,95.0,44,20,14.99,few clouds,0.000,0
248,Koundara,GN,2020-05-08 15:51:05,12.48,-13.3,110.64,12,72,4.27,broken clouds,0.000,0
249,Huaihua,CN,2020-05-08 15:51:05,27.55,109.96,65.62,92,95,4.12,overcast clouds,0.000,0
250,Churapcha,RU,2020-05-08 15:51:06,62.0,132.43,31.55,98,100,4.12,overcast clouds,0.000,0
251,Port Elizabeth,ZA,2020-05-08 15:51:06,-33.92,25.57,68.0,82,0,5.82,clear sky,0.000,0
252,Beringovskiy,RU,2020-05-08 15:51:06,63.05,179.32,29.86,99,100,7.14,snow,0.000,0
253,Antofagasta,CL,2020-05-08 15:51:00,-23.65,-70.4,62.6,77,75,2.24,broken clouds,0.000,0
254,Dukat,RU,2020-05-08 15:51:06,62.55,155.55,13.3,97,4,0.36,clear sky,0.000,0
255,Viedma,AR,2020-05-08 15:46:09,-40.81,-63.0,66.94,36,93,19.73,overcast clouds,0.000,0
256,Codrington,AU,2020-05-08 15:51:07,-38.27,141.97,50.72,88,100,9.93,heavy intensity rain,0.000,0
257,Sechura,PE,2020-05-08 15:51:07,-5.56,-80.82,80.1,58,24,8.12,few clouds,0.000,0
258,Anuchino,RU,2020-05-08 15:51:07,43.96,133.05,52.5,65,100,4.18,overcast clouds,0.000,0
259,Olinda,BR,2020-05-08 15:51:07,-8.01,-34.86,86.0,70,40,12.75,scattered clouds,0.000,0
260,Bathsheba,BB,2020-05-08 15:51:07,13.22,-59.52,87.8,62,40,21.92,scattered clouds,0.000,0
261,Balakhta,RU,2020-05-08 15:51:07,55.38,91.6,43.39,63,0,1.83,clear sky,0.000,0
262,Safakulevo,RU,2020-05-08 15:51:08,54.99,62.54,64.27,35,0,6.67,clear sky,0.000,0
263,San Pedro,PH,2020-05-08 15:51:08,14.35,121.02,87.8,74,75,3.36,broken clouds,0.000,0
264,Luorong,CN,2020-05-08 15:51:08,24.41,109.61,82.38,70,72,8.37,light rain,0.000,0
265,Warmbad,NA,2020-05-08 15:51:08,-28.45,18.73,80.35,15,0,6.46,clear sky,0.000,0
266,Luwingu,ZM,2020-05-08 15:51:08,-10.26,29.93,64.24,84,68,4.92,broken clouds,0.000,0
267,Ixtapa,MX,2020-05-08 15:51:08,20.7,-105.2,82.99,78,20,3.36,few clouds,0.000,0
268,Oranjemund,NA,2020-05-08 15:51:09,-28.55,16.43,63.23,65,0,8.57,clear sky,0.000,0
269,Sakaiminato,JP,2020-05-08 15:51:09,35.55,133.23,57.2,71,75,6.93,broken clouds,0.000,0
270,Fomboni,KM,2020-05-08 15:51:09,-12.28,43.74,81.32,80,3,19.15,clear sky,0.000,0
271,Tiksi,RU,2020-05-08 15:51:09,71.69,128.87,14.99,96,100,18.34,light snow,0.000,0
272,Port Blair,IN,2020-05-08 15:51:09,11.67,92.75,84.31,77,100,5.21,light rain,0.000,0
273,Kvarkeno,RU,2020-05-08 15:51:10,52.08,59.73,64.98,34,0,11.86,clear sky,0.000,0
274,Ambilobe,MG,2020-05-08 15:47:34,-13.2,49.05,76.66,80,43,2.93,scattered clouds,0.000,0
275,El Paso,US,2020-05-08 15:51:10,31.76,-106.49,69.01,16,75,19.46,dust,0.000,0
276,Sur,OM,2020-05-08 15:51:10,22.57,59.53,91.72,42,0,6.17,clear sky,0.000,0
277,Rocha,UY,2020-05-08 15:51:10,-34.48,-54.33,62.35,56,0,8.48,clear sky,0.000,0
278,Longyan,CN,2020-05-08 15:47:21,25.11,117.02,76.21,85,96,3.31,overcast clouds,0.000,0
279,Kavaratti,IN,2020-05-08 15:51:11,10.57,72.64,86.13,77,99,7.47,overcast clouds,0.000,0
280,Wabag,PG,2020-05-08 15:51:11,-5.48,143.7,56.48,94,99,1.21,overcast clouds,0.000,0
281,Wajima,JP,2020-05-08 15:51:11,37.4,136.9,58.53,59,100,9.08,overcast clouds,0.000,0
282,Nemuro,JP,2020-05-08 15:51:11,43.32,145.57,47.86,60,87,12.75,overcast clouds,0.000,0
283,Fairview,US,2020-05-08 15:50:56,40.81,-74.0,53.6,32,75,4.7,broken clouds,0.000,0
284,Xai-Xai,MZ,2020-05-08 15:51:12,-25.05,33.64,69.48,69,13,5.7,few clouds,0.000,0
285,Beaverlodge,CA,2020-05-08 15:51:12,55.22,-119.44,41.0,100,90,9.17,fog,0.000,0
286,Fukuma,JP,2020-05-08 15:51:12,33.77,130.47,68.0,56,95,6.93,overcast clouds,0.000,0
287,Korla,CN,2020-05-08 15:51:12,41.76,86.15,66.16,25,2,4.41,clear sky,0.000,0
288,Mocuba,MZ,2020-05-08 15:51:13,-16.84,36.99,68.95,94,51,4.83,light rain,0.000,0
289,Muzhi,RU,2020-05-08 15:51:13,65.37,64.67,56.82,80,97,17.52,overcast clouds,0.000,0
290,Alice Springs,AU,2020-05-08 15:46:48,-23.7,133.88,60.8,26,0,6.93,clear sky,0.000,0
291,Inirida,CO,2020-05-08 15:51:13,3.87,-67.92,74.98,97,100,3.02,light rain,0.000,0
292,Lagoa,PT,2020-05-08 15:51:13,39.05,-27.98,60.58,69,77,27.4,broken clouds,0.000,0
293,Svetlyy,RU,2020-05-08 15:51:13,54.67,20.13,53.6,71,20,15.66,few clouds,0.000,0
294,Magnor,SE,2020-05-08 15:51:13,59.95,12.2,60.01,35,39,8.05,scattered clouds,0.000,0
295,Jalu,LY,2020-05-08 15:51:14,29.03,21.55,86.49,13,0,16.2,clear sky,0.000,0
296,Axim,GH,2020-05-08 15:50:05,4.87,-2.24,85.55,71,58,10.0,light rain,0.000,0
297,Sorland,NO,2020-05-08 15:46:29,67.67,12.69,37.4,100,100,9.17,light snow,0.000,0
298,Qasigiannguit,GL,2020-05-08 15:48:01,68.82,-51.19,32.0,85,5,12.75,clear sky,0.000,0
299,Grafenau,DE,2020-05-08 15:51:14,48.86,13.4,73.0,33,63,3.0,broken clouds,0.000,0
300,Leshukonskoye,RU,2020-05-08 15:51:14,64.9,45.76,44.17,81,2,3.29,clear sky,0.000,0
301,Saint George,US,2020-05-08 15:48:34,37.1,-113.58,68.0,17,1,5.82,clear sky,0.000,0
302,Yanam,IN,2020-05-08 15:51:15,16.73,82.22,83.5,79,58,5.19,broken clouds,0.000,0
303,Ponta Delgada,PT,2020-05-08 15:51:15,37.73,-25.67,62.6,67,40,21.92,scattered clouds,0.000,0
304,Pemangkat,ID,2020-05-08 15:51:15,1.17,108.97,81.45,82,100,4.14,overcast clouds,0.000,0
305,Sambava,MG,2020-05-08 15:51:15,-14.27,50.17,77.76,82,2,10.54,clear sky,0.000,0
306,Tecoanapa,MX,2020-05-08 15:51:15,16.52,-98.75,87.33,50,0,6.76,clear sky,0.000,0
307,Kavieng,PG,2020-05-08 15:51:16,-2.57,150.8,82.76,73,0,7.63,clear sky,0.000,0
308,Pisco,PE,2020-05-08 15:51:16,-13.7,-76.22,71.6,73,23,5.82,few clouds,0.000,0
309,Bollnas,SE,2020-05-08 15:51:16,61.35,16.39,55.47,38,78,11.7,broken clouds,0.000,0
310,Mandalgovi,MN,2020-05-08 15:51:16,45.76,106.27,45.9,56,84,20.33,broken clouds,0.000,0
311,Kurtamysh,RU,2020-05-08 15:51:16,54.91,64.43,63.72,34,0,5.97,clear sky,0.000,0
312,Newport,GB,2020-05-08 15:51:17,51.59,-3.0,69.8,60,54,8.05,broken clouds,0.000,0
313,Hobbs,US,2020-05-08 15:51:17,32.7,-103.14,59.0,24,5,23.04,clear sky,0.000,0
314,Tuatapere,NZ,2020-05-08 15:46:50,-46.13,167.68,47.95,85,36,7.0,scattered clouds,0.000,0
315,Frontera Comalapa,MX,2020-05-08 15:51:17,15.65,-92.13,88.45,44,55,1.7,broken clouds,0.000,0
316,Terme,TR,2020-05-08 15:51:17,41.21,36.97,57.2,58,75,3.36,broken clouds,0.000,0
317,Vicuna,CL,2020-05-08 15:51:17,-30.03,-70.71,57.2,82,90,1.12,overcast clouds,0.000,0
318,Morada Nova,BR,2020-05-08 15:51:18,-5.11,-38.37,89.04,53,0,7.02,clear sky,0.000,0
319,Oranjestad,AW,2020-05-08 15:51:18,12.52,-70.03,87.8,66,40,23.04,scattered clouds,0.000,0
320,Fort Nelson,CA,2020-05-08 15:51:18,58.81,-122.7,42.8,87,75,2.24,broken clouds,0.000,0
321,Kabalo,CD,2020-05-08 15:51:18,-6.05,26.92,76.59,86,36,5.39,scattered clouds,0.000,0
322,Lokosovo,RU,2020-05-08 15:51:18,61.13,74.82,65.25,48,100,10.29,overcast clouds,0.000,0
323,Clarence Town,AU,2020-05-08 15:51:19,-32.58,151.78,63.0,93,0,3.4,clear sky,0.000,0
324,Koslan,RU,2020-05-08 15:51:19,63.46,48.9,43.02,82,100,2.28,overcast clouds,0.000,0
325,Nizhnyaya Tavda,RU,2020-05-08 15:51:19,57.67,66.17,64.71,41,98,4.74,overcast clouds,0.000,0
326,Saldanha,ZA,2020-05-08 15:51:19,-33.01,17.94,82.4,32,0,6.93,clear sky,0.000,0
327,Ossora,RU,2020-05-08 15:51:19,59.24,163.07,30.79,98,100,12.75,light snow,0.000,0
328,Basco,PH,2020-05-08 15:46:53,20.45,121.97,82.18,73,0,5.82,clear sky,0.000,0
329,Nyrob,RU,2020-05-08 15:51:20,60.73,56.72,56.77,90,100,3.4,overcast clouds,0.000,0
330,Luderitz,NA,2020-05-08 15:51:20,-26.65,15.16,62.6,72,0,12.75,clear sky,0.000,0
331,Batsfjord,NO,2020-05-08 15:51:20,70.63,29.72,33.8,69,35,13.87,scattered clouds,0.000,0
332,Baker City,US,2020-05-08 15:51:20,44.77,-117.83,48.2,57,1,3.87,clear sky,0.000,0
333,Port-Cartier,CA,2020-05-08 15:51:20,50.03,-66.87,48.2,42,75,6.93,broken clouds,0.000,0
334,Qrendi,MT,2020-05-08 15:51:20,35.83,14.46,69.8,40,57,10.29,broken clouds,0.000,0
335,Duncan,US,2020-05-08 15:51:21,34.5,-97.96,59.0,67,90,20.8,overcast clouds,0.000,0
336,Shahr-E Kord,IR,2020-05-08 15:51:21,32.33,50.86,68.0,19,0,9.17,clear sky,0.000,0
337,Adre,TD,2020-05-08 15:51:21,13.47,22.2,96.03,12,59,0.96,broken clouds,0.000,0
338,Vardo,NO,2020-05-08 15:47:12,70.37,31.11,39.2,60,75,8.05,shower rain,0.000,0
339,Coruripe,BR,2020-05-08 15:49:20,-10.13,-36.18,84.33,61,40,8.9,scattered clouds,0.000,0
340,Noumea,NC,2020-05-08 15:51:21,-22.28,166.46,73.99,93,75,3.36,broken clouds,0.000,0
341,Pedernales,DO,2020-05-08 15:51:22,18.04,-71.74,89.56,51,77,10.51,broken clouds,0.000,0
342,Sola,VU,2020-05-08 15:48:12,-13.88,167.55,79.11,75,0,13.33,clear sky,0.000,0
343,Palana,RU,2020-05-08 15:51:22,59.12,159.97,29.91,95,0,12.62,clear sky,0.000,0
344,Sidi Ali,DZ,2020-05-08 15:51:22,36.1,0.42,70.61,69,0,8.23,clear sky,0.000,0
345,Thompson,CA,2020-05-08 15:51:22,55.74,-97.86,26.6,73,90,4.7,overcast clouds,0.000,0
346,Moratuwa,LK,2020-05-08 15:51:22,6.77,79.88,82.4,100,40,2.24,scattered clouds,0.000,0
347,Dunedin,NZ,2020-05-08 15:50:18,-45.87,170.5,52.0,82,96,1.99,overcast clouds,0.000,0
348,Klyuchi,RU,2020-05-08 15:51:23,52.27,79.17,60.6,42,0,11.74,clear sky,0.000,0
349,Wheeling,US,2020-05-08 15:51:23,42.14,-87.93,43.0,52,75,12.75,broken clouds,0.000,0
350,Kosonsoy,UZ,2020-05-08 15:51:23,41.26,71.55,75.2,41,97,4.7,light rain,0.000,0
351,Lavrentiya,RU,2020-05-08 15:51:23,65.58,-171.0,30.9,90,100,12.06,overcast clouds,0.000,0
352,Pevek,RU,2020-05-08 15:46:24,69.7,170.31,25.75,91,0,8.86,clear sky,0.000,0
353,Rybnaya Sloboda,RU,2020-05-08 15:51:24,55.46,50.14,69.8,43,5,6.71,clear sky,0.000,0
354,Talaja,IN,2020-05-08 15:51:24,21.35,72.05,89.62,48,0,13.06,clear sky,0.000,0
355,Chapais,CA,2020-05-08 15:47:39,49.78,-74.85,23.0,67,90,10.29,light snow,0.000,0
356,Muros,ES,2020-05-08 15:48:00,42.78,-9.06,64.99,84,48,8.99,scattered clouds,0.000,0
357,Sayyan,YE,2020-05-08 15:51:24,15.17,44.32,66.45,29,3,13.38,clear sky,0.000,0
358,Mercedes,AR,2020-05-08 15:51:25,-34.65,-59.43,64.0,59,51,8.01,broken clouds,0.000,0
359,Manzhouli,CN,2020-05-08 15:51:25,49.6,117.43,50.04,43,62,6.78,broken clouds,0.000,0
360,Saint-Francois,FR,2020-05-08 15:51:25,46.42,3.91,78.8,41,62,3.36,broken clouds,0.000,0
361,Dudinka,RU,2020-05-08 15:51:25,69.41,86.18,35.6,93,75,22.37,broken clouds,0.000,0
362,Pryazha,RU,2020-05-08 15:51:25,61.69,33.62,53.6,27,21,6.71,few clouds,0.000,0
363,Grand-Lahou,CI,2020-05-08 15:51:25,5.14,-5.02,85.64,71,54,10.69,broken clouds,0.000,0
364,Carnarvon,AU,2020-05-08 15:51:26,-24.87,113.63,70.54,40,82,21.56,broken clouds,0.000,0
365,Khasan,RU,2020-05-08 15:51:26,42.43,130.64,52.68,79,100,2.01,overcast clouds,0.000,0
366,Labuhan,ID,2020-05-08 15:51:26,-6.88,112.21,80.58,86,63,7.18,broken clouds,0.000,0
367,Honiara,SB,2020-05-08 15:51:26,-9.43,159.95,75.2,100,40,2.62,scattered clouds,0.000,0
368,Hamilton,US,2020-05-08 15:47:09,39.18,-84.53,51.01,93,90,8.05,moderate rain,0.000,0
369,Batagay-Alyta,RU,2020-05-08 15:51:26,67.8,130.41,12.29,94,98,3.4,overcast clouds,0.000,0
370,Zacatlan,MX,2020-05-08 15:51:27,19.93,-97.97,72.48,42,3,1.57,clear sky,0.000,0
371,Udachnyy,RU,2020-05-08 15:51:27,66.42,112.4,17.6,61,86,6.71,overcast clouds,0.000,0
372,Broome,US,2020-05-08 15:51:27,42.25,-75.83,48.99,38,90,6.93,overcast clouds,0.000,0
373,Qurayyat,SA,2020-05-08 15:51:27,31.33,37.34,91.4,7,0,16.11,clear sky,0.000,0
374,Port Augusta,AU,2020-05-08 15:51:28,-32.5,137.77,57.2,62,0,6.93,clear sky,0.000,0
375,Kargala,RU,2020-05-08 15:51:28,56.62,83.96,59.0,53,0,4.76,clear sky,0.000,0
376,Lososina,RU,2020-05-08 15:51:28,49.0,140.31,49.84,58,1,6.4,clear sky,0.000,0
377,Zhaoyuan,CN,2020-05-08 15:51:28,37.36,120.4,54.0,94,100,12.59,overcast clouds,0.000,0
378,Motygino,RU,2020-05-08 15:51:28,58.18,94.76,41.31,77,53,3.65,broken clouds,0.000,0
379,Chernaya Kholunitsa,RU,2020-05-08 15:51:28,58.85,51.72,58.66,93,100,3.6,light rain,0.000,0
380,Crotone,IT,2020-05-08 15:51:28,39.09,17.12,71.6,35,19,4.7,few clouds,0.000,0
381,Timmins,CA,2020-05-08 15:51:29,48.47,-81.33,23.0,57,90,10.29,light shower snow,0.000,0
382,Marsh Harbour,BS,2020-05-08 15:51:29,26.54,-77.06,73.8,58,6,12.84,clear sky,0.000,0
383,Kargopol,RU,2020-05-08 15:51:29,61.51,38.95,48.58,64,35,3.76,scattered clouds,0.000,0
384,Baruun-Urt,MN,2020-05-08 15:51:29,46.68,113.28,51.87,44,67,7.63,broken clouds,0.000,0
385,Nguruka,TZ,2020-05-08 15:51:29,-5.11,31.04,70.0,87,88,4.07,light rain,0.000,0
386,Snasa,NO,2020-05-08 15:51:29,64.25,12.38,41.0,60,75,8.05,shower rain,0.000,0
387,Laguna,US,2020-05-08 15:51:30,38.42,-121.42,69.01,55,1,5.39,clear sky,0.000,0
388,Caravelas,BR,2020-05-08 15:51:30,-17.71,-39.25,71.2,88,100,11.16,light rain,0.000,0
389,Remedios,CU,2020-05-08 15:51:30,22.49,-79.55,84.2,66,75,1.12,broken clouds,0.000,0
390,Mandeville,JM,2020-05-08 15:51:30,18.04,-77.51,84.2,74,20,16.11,few clouds,0.000,0
391,Pinawa,CA,2020-05-08 15:51:30,50.15,-95.88,38.23,60,0,7.14,clear sky,0.000,0
392,Katete,UG,2020-05-08 15:51:30,-0.78,29.75,67.68,95,3,2.62,light rain,0.000,0
393,Veraval,IN,2020-05-08 15:51:31,20.9,70.37,82.29,83,0,9.55,clear sky,0.000,0
394,Nyurba,RU,2020-05-08 15:51:31,63.28,118.33,25.0,90,100,7.47,overcast clouds,0.000,0
395,Sabzevar,IR,2020-05-08 15:51:31,36.21,57.68,72.75,30,12,17.58,few clouds,0.000,0
396,Harwich,GB,2020-05-08 15:51:31,51.94,1.28,70.0,50,98,8.01,overcast clouds,0.000,0
397,Camacha,PT,2020-05-08 15:51:31,33.08,-16.33,69.8,64,20,10.29,few clouds,0.000,0
398,Ormara,PK,2020-05-08 15:51:32,25.21,64.64,83.19,84,24,8.9,few clouds,0.000,0
399,Fairbanks,US,2020-05-08 15:50:01,64.84,-147.72,55.4,35,1,11.41,haze,0.000,0
400,Zabid,YE,2020-05-08 15:51:32,14.2,43.32,94.82,45,53,15.43,broken clouds,0.000,0
401,Jaguaribe,BR,2020-05-08 15:51:32,-5.89,-38.62,89.62,51,2,7.07,clear sky,0.000,0
402,Vysokogornyy,RU,2020-05-08 15:51:32,50.12,139.15,39.51,83,4,14.47,clear sky,0.000,0
403,Kahului,US,2020-05-08 15:51:32,20.89,-156.47,71.6,88,90,19.46,moderate rain,0.000,0
404,Xining,CN,2020-05-08 15:51:33,36.62,101.77,36.48,85,100,8.01,snow,0.000,0
405,Sulucan,PH,2020-05-08 15:51:33,14.8,120.93,87.8,74,75,3.36,broken clouds,0.000,0
406,Nizhniy Kuranakh,RU,2020-05-08 15:51:33,58.84,125.49,29.79,96,100,5.44,overcast clouds,0.000,0
407,Moron,AR,2020-05-08 15:49:04,-34.65,-58.62,64.99,51,30,12.75,scattered clouds,0.000,0
408,Ulaangom,MN,2020-05-08 15:51:33,49.98,92.07,48.52,48,64,2.98,broken clouds,0.000,0
409,Poronaysk,RU,2020-05-08 15:51:33,49.22,143.12,45.95,79,71,7.05,broken clouds,0.000,0
410,Mastic Beach,US,2020-05-08 15:51:34,40.77,-72.85,53.6,32,90,8.05,overcast clouds,0.000,0
411,Bay City,US,2020-05-08 15:51:34,43.59,-83.89,45.0,44,40,13.87,scattered clouds,0.000,0
412,Luganville,VU,2020-05-08 15:51:34,-15.53,167.17,73.65,82,11,6.71,few clouds,0.000,0
413,Mildura,AU,2020-05-08 15:46:44,-34.2,142.15,57.2,62,90,4.7,overcast clouds,0.000,0
414,Skjervoy,NO,2020-05-08 15:51:34,70.03,20.97,35.6,69,75,14.99,shower rain,0.000,0
415,Nioro,GM,2020-05-08 15:51:35,13.35,-15.75,109.67,8,77,10.36,broken clouds,0.000,0
416,Kalachinsk,RU,2020-05-08 15:51:35,55.05,74.58,67.57,32,0,3.89,clear sky,0.000,0
417,Clyde River,CA,2020-05-08 15:47:14,70.47,-68.59,19.4,79,40,18.34,scattered clouds,0.000,0
418,Porto Novo,BJ,2020-05-08 15:51:35,6.5,2.6,87.8,74,20,12.75,few clouds,0.000,0
419,Kargil,IN,2020-05-08 15:51:36,34.57,76.1,40.71,58,3,6.29,clear sky,0.000,0
420,Urdoma,RU,2020-05-08 15:51:36,61.75,48.54,49.69,86,100,3.6,overcast clouds,0.000,0
421,Puerto Asis,CO,2020-05-08 15:51:36,0.51,-76.5,78.8,94,90,2.24,overcast clouds,0.000,0
422,Hualmay,PE,2020-05-08 15:51:36,-11.1,-77.61,73.81,67,9,10.6,clear sky,0.000,0
423,Makubetsu,JP,2020-05-08 15:51:36,45.37,141.82,48.09,76,100,19.89,overcast clouds,0.000,0
424,Mareeba,AU,2020-05-08 15:51:37,-17.0,145.43,71.6,83,40,8.05,scattered clouds,0.000,0
425,Sovetsk,RU,2020-05-08 15:51:37,55.08,21.88,55.33,71,33,8.55,scattered clouds,0.000,0
426,Wahpeton,US,2020-05-08 15:51:37,46.27,-96.61,42.01,48,0,14.99,clear sky,0.000,0
427,Awbari,LY,2020-05-08 15:51:37,26.59,12.78,98.98,8,48,12.75,scattered clouds,0.000,0
428,Dumas,US,2020-05-08 15:48:20,35.87,-101.97,46.0,61,90,23.04,overcast clouds,0.000,0
429,Sapu,CN,2020-05-08 15:51:37,36.17,107.71,59.4,46,100,8.46,overcast clouds,0.000,0
430,Margate,GB,2020-05-08 15:51:38,51.38,1.39,68.0,45,99,9.17,overcast clouds,0.000,0
431,Lewistown,US,2020-05-08 15:47:12,40.6,-77.57,46.0,87,75,3.94,light rain,0.000,0
432,Tabas,IR,2020-05-08 15:51:38,33.6,56.92,87.8,15,0,6.93,clear sky,0.000,0
433,Ulaanbaatar,MN,2020-05-08 15:50:54,47.91,106.88,39.2,69,40,17.9,scattered clouds,0.000,0
434,Dehloran,IR,2020-05-08 15:51:38,32.69,47.27,86.18,19,0,8.32,clear sky,0.000,0
435,Satis,RU,2020-05-08 15:51:38,54.92,43.23,58.03,90,100,5.01,overcast clouds,0.000,0
436,Kencong,ID,2020-05-08 15:51:39,-8.28,113.37,78.35,91,100,2.55,light rain,0.000,0
437,Faanui,PF,2020-05-08 15:51:39,-16.48,-151.75,81.73,78,99,15.35,overcast clouds,0.000,0
438,Rafaela,AR,2020-05-08 15:51:39,-31.25,-61.49,62.96,50,0,12.8,clear sky,0.000,0
439,Port-Gentil,GA,2020-05-08 15:51:39,-0.72,8.78,82.4,78,75,5.82,broken clouds,0.000,0
440,Tiruchchendur,IN,2020-05-08 15:51:39,8.48,78.12,86.11,74,23,14.09,few clouds,0.000,0
441,Florianopolis,BR,2020-05-08 15:51:39,-27.61,-48.5,73.99,46,0,4.7,clear sky,0.000,0
442,Sibulan,PH,2020-05-08 15:51:40,9.36,123.28,86.0,84,40,2.48,scattered clouds,0.000,0
443,Mount Gambier,AU,2020-05-08 15:51:40,-37.83,140.77,51.8,93,40,12.75,light rain,0.000,0
444,Talnakh,RU,2020-05-08 15:51:40,69.49,88.4,35.6,93,75,22.37,broken clouds,0.000,0
445,Shymkent,KZ,2020-05-08 15:51:40,42.3,69.6,62.6,88,90,13.42,light intensity shower rain,0.000,0
446,Lasa,IT,2020-05-08 15:51:40,46.62,10.7,60.8,59,75,9.17,broken clouds,0.000,0
447,Weihai,CN,2020-05-08 15:47:45,37.5,122.11,54.28,95,100,24.36,light rain,0.000,0
448,Ungaran,ID,2020-05-08 15:51:40,-7.14,110.41,74.98,92,91,3.06,light rain,0.000,0
449,Sao Joao Da Barra,BR,2020-05-08 15:51:41,-21.64,-41.05,77.0,47,20,13.87,few clouds,0.000,0
450,Buin,CL,2020-05-08 15:51:41,-33.73,-70.75,69.8,20,100,2.24,overcast clouds,0.000,0
451,Poum,NC,2020-05-08 15:51:41,-20.23,164.02,74.48,74,9,20.18,clear sky,0.000,0
452,Abyek,IR,2020-05-08 15:51:41,36.07,50.55,69.8,35,0,13.87,clear sky,0.000,0
453,Samarai,PG,2020-05-08 15:47:52,-10.62,150.67,79.34,82,49,15.08,scattered clouds,0.000,0
454,Ruwi,OM,2020-05-08 15:51:41,23.6,58.55,102.2,9,0,10.29,clear sky,0.000,0
455,Bulgan,MN,2020-05-08 15:51:41,48.81,103.53,35.73,78,45,5.01,scattered clouds,0.000,0
456,Muroto,JP,2020-05-08 15:51:42,33.28,134.15,64.24,71,89,10.58,overcast clouds,0.000,0
457,Port Hedland,AU,2020-05-08 15:51:42,-20.32,118.57,71.6,78,0,4.7,clear sky,0.000,0
458,Agadez,NE,2020-05-08 15:51:42,19.75,10.25,100.38,6,0,3.87,clear sky,0.000,0
459,Los Llanos De Aridane,ES,2020-05-08 15:48:36,28.66,-17.92,73.4,60,40,4.7,scattered clouds,0.000,0
460,Ankpa,NG,2020-05-08 15:51:42,7.37,7.63,86.76,64,36,5.44,light rain,0.000,0
461,Vestmannaeyjar,IS,2020-05-08 15:51:42,63.44,-20.27,46.4,70,20,16.11,few clouds,0.000,0
462,Novovorontsovka,UA,2020-05-08 15:51:43,47.5,33.92,55.35,66,65,13.09,broken clouds,0.000,0
463,Yeppoon,AU,2020-05-08 15:51:43,-23.13,150.73,66.2,82,15,6.93,few clouds,0.000,0
464,Mao,ES,2020-05-08 15:50:46,39.89,4.27,68.0,77,75,20.8,broken clouds,0.000,0
465,Mandera,KE,2020-05-08 15:51:43,3.94,41.87,87.71,53,93,9.95,overcast clouds,0.000,0
466,Dickinson,US,2020-05-08 15:50:02,29.46,-95.05,82.99,65,75,13.87,broken clouds,0.000,0
467,Tashtyp,RU,2020-05-08 15:51:43,52.79,89.9,44.22,60,1,2.86,clear sky,0.000,0
468,Bexhill,AU,2020-05-08 15:51:44,-28.77,153.35,64.0,93,75,3.36,broken clouds,0.000,0
469,Ponezhukay,RU,2020-05-08 15:51:44,44.89,39.39,59.0,58,40,17.9,scattered clouds,0.000,0
470,Almeirim,BR,2020-05-08 15:51:44,-1.52,-52.58,87.08,63,100,4.03,overcast clouds,0.000,0
471,Tsivilsk,RU,2020-05-08 15:51:44,55.86,47.47,68.0,64,20,4.47,few clouds,0.000,0
472,Krivosheino,RU,2020-05-08 15:51:44,57.34,83.93,55.56,69,2,7.16,clear sky,0.000,0
473,Cabo San Lucas,MX,2020-05-08 15:50:25,22.89,-109.91,82.99,22,5,11.41,clear sky,0.000,0
474,Susanville,US,2020-05-08 15:51:45,40.42,-120.65,57.99,30,1,4.14,clear sky,0.000,0
475,Sitka,US,2020-05-08 15:51:45,57.05,-135.33,48.2,66,75,4.7,broken clouds,0.000,0
476,Bani Walid,LY,2020-05-08 15:51:45,31.76,13.99,79.02,20,42,16.2,scattered clouds,0.000,0
477,Pirapora,BR,2020-05-08 15:46:49,-17.34,-44.94,80.33,60,75,6.31,light rain,0.000,0
478,Kysyl-Syr,RU,2020-05-08 15:51:45,63.9,122.76,20.77,96,98,10.33,overcast clouds,0.000,0
479,Okhotsk,RU,2020-05-08 15:51:45,59.38,143.3,31.17,92,99,2.19,overcast clouds,0.000,0
480,Rosario,AR,2020-05-08 15:49:08,-32.95,-60.64,64.99,51,32,17.22,scattered clouds,0.000,0
481,Hammerfest,NO,2020-05-08 15:51:46,70.66,23.68,33.8,80,75,17.22,broken clouds,0.000,0
482,Varhaug,NO,2020-05-08 15:51:46,58.61,5.65,51.8,66,75,12.75,broken clouds,0.000,0
483,Glens Falls,US,2020-05-08 15:51:08,43.31,-73.64,52.0,29,1,11.41,clear sky,0.000,0
484,Inta,RU,2020-05-08 15:51:46,66.03,60.17,36.88,92,100,8.01,overcast clouds,0.000,0
485,Kapoeta,SS,2020-05-08 15:51:46,4.77,33.59,84.88,52,93,6.91,overcast clouds,0.000,0
486,La Ronge,CA,2020-05-08 15:51:46,55.1,-105.28,35.6,64,90,6.93,overcast clouds,0.000,0
487,Lampa,CL,2020-05-08 15:51:47,-33.28,-70.9,73.0,42,100,3.36,overcast clouds,0.000,0
488,Samana,DO,2020-05-08 15:51:44,19.21,-69.34,87.8,74,40,13.87,scattered clouds,0.000,0
489,Kieta,PG,2020-05-08 15:51:47,-6.22,155.63,79.02,76,62,2.01,broken clouds,0.000,0
490,Vangaindrano,MG,2020-05-08 15:51:47,-23.35,47.6,69.71,85,29,9.01,scattered clouds,0.000,0
491,Birao,CF,2020-05-08 15:51:47,10.28,22.79,97.99,17,94,4.07,overcast clouds,0.000,0
492,Omsukchan,RU,2020-05-08 15:51:47,62.53,155.8,15.98,94,18,1.41,few clouds,0.000,0
493,Saint-Joseph,RE,2020-05-08 15:51:48,-21.37,55.62,73.4,88,91,5.82,overcast clouds,0.000,0
494,San Ramon,US,2020-05-08 15:51:32,37.78,-121.98,69.01,51,1,2.35,clear sky,0.000,0
495,Windhoek,NA,2020-05-08 15:47:26,-22.56,17.08,77.0,23,0,5.82,clear sky,0.000,0
496,Can,TR,2020-05-08 15:51:48,40.03,27.05,71.6,35,40,8.05,scattered clouds,0.000,0
497,Yar-Sale,RU,2020-05-08 15:51:48,66.83,70.83,43.61,94,100,14.81,overcast clouds,0.000,0
498,Xiaoweizhai,CN,2020-05-08 15:51:48,26.19,107.51,73.08,91,36,4.76,light rain,0.000,0
499,Vidosi,BA,2020-05-08 15:51:48,43.77,17.03,68.0,52,87,12.75,overcast clouds,0.000,0
500,Seoul,KR,2020-05-08 15:51:01,37.57,126.98,57.2,87,90,5.82,light rain,0.000,0
501,Key West,US,2020-05-08 15:47:41,24.56,-81.78,82.4,57,1,18.34,clear sky,0.000,0
502,Pontes E Lacerda,BR,2020-05-08 15:51:49,-15.23,-59.34,73.45,47,66,5.93,broken clouds,0.000,0
503,Kudahuvadhoo,MV,2020-05-08 15:51:49,2.67,72.89,85.78,76,37,15.17,scattered clouds,0.000,0
504,Zabaykalsk,RU,2020-05-08 15:51:49,49.63,117.32,50.11,42,66,7.49,broken clouds,0.000,0
505,Ystad,SE,2020-05-08 15:51:49,55.43,13.82,60.8,55,90,13.87,overcast clouds,0.000,0
506,Tutoia,BR,2020-05-08 15:51:50,-2.76,-42.27,87.93,61,72,6.85,broken clouds,0.000,0
507,Kaputa,ZM,2020-05-08 15:51:50,-8.47,29.66,73.4,76,100,10.69,overcast clouds,0.000,0
508,Sinnamary,GF,2020-05-08 15:51:50,5.38,-52.95,80.92,76,96,12.39,overcast clouds,0.000,0
509,Allende,MX,2020-05-08 15:51:50,25.28,-100.02,78.8,65,75,4.7,broken clouds,0.000,0
510,Anloga,GH,2020-05-08 15:50:15,5.79,0.9,89.6,70,20,12.75,few clouds,0.000,0
511,Chimbote,PE,2020-05-08 15:49:19,-9.09,-78.58,75.94,66,6,10.16,clear sky,0.000,0
512,Wells,GB,2020-05-08 15:51:50,51.21,-2.65,72.0,60,45,8.05,scattered clouds,0.000,0
513,Victor Harbor,AU,2020-05-08 15:51:51,-35.57,138.62,53.01,96,95,15.68,moderate rain,0.000,0
514,Petukhovo,RU,2020-05-08 15:51:51,55.07,67.9,64.71,34,0,8.14,clear sky,0.000,0
515,Nowy Dwor Gdanski,PL,2020-05-08 15:51:51,54.21,19.12,64.0,44,4,17.22,clear sky,0.000,0
516,Kidal,ML,2020-05-08 15:51:51,18.44,1.41,105.71,6,0,13.38,clear sky,0.000,0
517,General Roca,AR,2020-05-08 15:51:51,-39.03,-67.58,55.4,58,79,4.7,broken clouds,0.000,0
518,Constitucion,CL,2020-05-08 15:51:51,-35.33,-72.42,65.17,50,100,5.82,overcast clouds,0.000,0
519,Koumra,TD,2020-05-08 15:51:51,8.91,17.55,95.68,32,20,4.34,few clouds,0.000,0
520,La Tuque,CA,2020-05-08 15:51:52,47.43,-72.78,39.92,61,25,8.23,scattered clouds,0.000,0
521,Cavalcante,BR,2020-05-08 15:51:52,-13.8,-47.46,78.33,67,63,7.29,light rain,0.000,0
522,Kenai,US,2020-05-08 15:51:52,60.55,-151.26,48.0,52,90,16.11,overcast clouds,0.000,0
523,Cap Malheureux,MU,2020-05-08 15:51:52,-19.98,57.61,73.99,85,2,3.0,clear sky,0.000,0
524,Durban,ZA,2020-05-08 15:50:03,-29.86,31.03,69.8,83,29,3.36,scattered clouds,0.000,0
525,Matadi,CD,2020-05-08 15:51:52,-5.82,13.45,91.2,58,81,1.48,broken clouds,0.000,0
526,Manica,FR,2020-05-08 15:51:52,49.0,-1.17,72.0,10,89,8.01,overcast clouds,0.000,0
527,Port Macquarie,AU,2020-05-08 15:51:53,-31.43,152.92,54.0,96,12,6.53,few clouds,0.000,0
528,Isla Mujeres,MX,2020-05-08 15:51:53,21.23,-86.73,82.4,69,75,14.99,broken clouds,0.000,0
529,Sharjah,AE,2020-05-08 15:51:25,25.36,55.4,91.4,26,2,10.29,clear sky,0.000,0
530,Elhovo,BG,2020-05-08 15:49:04,42.17,26.57,68.0,40,40,6.93,scattered clouds,0.000,0
531,Hareid,NO,2020-05-08 15:51:53,62.37,6.03,46.0,81,75,18.34,shower rain,0.000,0
532,Ojinaga,MX,2020-05-08 15:51:53,29.57,-104.42,75.2,19,40,26.4,scattered clouds,0.000,0
533,Zvishavane,ZW,2020-05-08 15:51:53,-20.33,30.07,62.02,64,0,6.22,clear sky,0.000,0
534,Bandarbeyla,SO,2020-05-08 15:51:54,9.49,50.81,84.04,70,0,9.69,clear sky,0.000,0
535,Kozhevnikovo,RU,2020-05-08 15:51:54,56.26,83.97,59.0,53,0,4.27,clear sky,0.000,0
536,Fallon,US,2020-05-08 15:51:54,39.47,-118.78,63.0,20,1,3.36,clear sky,0.000,0
537,Oga,IT,2020-05-08 15:51:54,46.46,10.35,60.8,48,95,17.22,overcast clouds,0.000,0
538,Tondano,ID,2020-05-08 15:51:54,1.3,124.91,77.0,94,20,2.24,few clouds,0.000,0
539,Evensk,RU,2020-05-08 15:51:55,61.95,159.23,27.12,93,11,18.57,few clouds,0.000,0
540,Atambua,ID,2020-05-08 15:51:55,-9.11,124.89,70.7,88,9,5.26,clear sky,0.000,0
541,Pine Bluff,US,2020-05-08 15:51:55,34.23,-92.0,61.0,87,90,14.99,mist,0.000,0
542,Cayenne,GF,2020-05-08 15:51:55,4.93,-52.33,86.0,70,90,13.87,overcast clouds,0.000,0
543,Taganak,PH,2020-05-08 15:51:55,6.08,118.3,84.2,83,20,3.36,few clouds,0.000,0
544,Maxixe,MZ,2020-05-08 15:51:55,-23.86,35.35,70.29,74,19,8.32,few clouds,0.000,0
545,Saint-Georges,GD,2020-05-08 15:51:55,12.06,-61.75,86.0,70,20,23.04,few clouds,0.000,0
546,Male,MV,2020-05-08 15:51:56,4.17,73.51,86.0,84,75,12.75,broken clouds,0.000,0
547,Cockburn Town,TC,2020-05-08 15:51:56,21.46,-71.14,81.01,82,60,9.95,light rain,0.000,0
548,Ulladulla,AU,2020-05-08 15:51:56,-35.35,150.47,51.01,87,0,4.7,clear sky,0.000,0
549,Las Animas,CL,2020-05-08 15:49:23,-39.81,-73.22,53.6,100,90,3.36,overcast clouds,0.000,0
550,Colares,PT,2020-05-08 15:51:56,38.8,-9.45,71.01,72,40,10.29,scattered clouds,0.000,0
551,Abu Samrah,SY,2020-05-08 15:51:57,35.3,37.18,76.37,28,99,11.77,overcast clouds,0.000,0
552,Wakkanai,JP,2020-05-08 15:51:57,45.41,141.67,47.41,79,100,20.15,overcast clouds,0.000,0
553,Dawlatabad,AF,2020-05-08 15:51:57,36.41,64.91,79.11,41,45,4.41,scattered clouds,0.000,0
554,Phalaborwa,ZA,2020-05-08 15:51:57,-23.94,31.14,75.2,53,9,3.36,clear sky,0.000,0
555,Baykit,RU,2020-05-08 15:51:57,61.67,96.37,38.55,75,96,2.53,overcast clouds,0.000,0
556,Kelso,US,2020-05-08 15:49:23,46.15,-122.91,57.0,76,1,4.21,clear sky,0.000,0
557,Kaili,ID,2020-05-08 15:51:58,-3.46,120.21,70.74,91,100,2.77,overcast clouds,0.000,0
558,Vila Franca Do Campo,PT,2020-05-08 15:51:58,37.72,-25.43,62.6,67,40,21.92,scattered clouds,0.000,0
559,Portland,US,2020-05-08 15:48:30,45.52,-122.68,64.99,45,1,8.05,clear sky,0.000,0
560,Ratnagiri,IN,2020-05-08 15:51:58,16.98,73.3,81.64,80,0,6.82,clear sky,0.000,0
561,Doha,QA,2020-05-08 15:49:36,25.29,51.53,89.6,21,52,10.29,broken clouds,0.000,0
562,Mitu,CO,2020-05-08 15:50:00,1.2,-70.17,73.29,98,100,3.49,moderate rain,0.000,0
563,Eyl,SO,2020-05-08 15:51:59,7.98,49.82,84.69,67,0,10.38,clear sky,0.000,0
564,Kilindoni,TZ,2020-05-08 15:51:59,-7.91,39.67,82.11,68,27,16.62,scattered clouds,0.000,0
565,Wanaka,NZ,2020-05-08 15:51:59,-44.7,169.15,45.0,75,78,1.99,broken clouds,0.000,0
566,San Antonio,US,2020-05-08 15:50:45,29.42,-98.49,80.6,69,75,5.82,broken clouds,0.000,0
567,Benjamin Hill,MX,2020-05-08 15:51:59,30.17,-111.1,81.0,29,76,1.99,broken clouds,0.000,0
568,Ilinskiy,RU,2020-05-08 15:51:59,55.62,38.12,53.01,87,100,4.47,overcast clouds,0.000,0
569,Cam Ranh,VN,2020-05-08 15:51:59,11.92,109.16,86.0,89,20,6.93,few clouds,0.000,0
