City_ID,City,Country,Date,Lat,Lng,Max Temp,Humidity,Cloudiness,Wind Speed,Current Description,Rain inches (last 3hrs),Snow inches (last 3hrs)
0,Juchipila,MX,2020-05-08 14:11:02,21.42,-103.12,72.27,54,96,4.23,light rain,0.000,0
1,Semnan,IR,2020-05-08 14:11:02,35.57,53.4,76.96,20,7,4.61,clear sky,0.000,0
2,Saldanha,ZA,2020-05-08 14:11:03,-33.01,17.94,84.2,35,0,6.93,clear sky,0.000,0
3,Hermanus,ZA,2020-05-08 14:06:34,-34.42,19.23,71.4,61,0,15.75,clear sky,0.000,0
4,Nanortalik,GL,2020-05-08 14:11:03,60.14,-45.24,41.67,69,100,5.23,overcast clouds,0.000,0
5,Albany,US,2020-05-08 14:11:03,42.6,-73.97,52.0,27,100,11.01,overcast clouds,0.000,0
6,Rikitea,PF,2020-05-08 14:11:03,-23.12,-134.97,75.36,72,42,11.56,scattered clouds,0.000,0
7,Kushmurun,KZ,2020-05-08 14:11:04,52.45,64.63,74.91,30,0,9.22,clear sky,0.000,0
8,Seoul,KR,2020-05-08 14:07:12,37.57,126.98,60.8,87,90,5.82,light rain,0.000,0
9,Yeppoon,AU,2020-05-08 14:11:04,-23.13,150.73,66.2,82,23,4.7,light rain,0.000,0
10,Salto,UY,2020-05-08 14:06:46,-31.38,-57.97,54.0,87,16,6.55,few clouds,0.000,0
11,Kodiak,US,2020-05-08 14:11:04,57.79,-152.41,44.6,93,90,16.11,overcast clouds,0.000,0
12,Bredasdorp,ZA,2020-05-08 14:11:04,-34.53,20.04,71.6,56,0,10.29,clear sky,0.000,0
13,Arraial Do Cabo,BR,2020-05-08 14:11:05,-22.97,-42.03,73.4,78,40,6.93,scattered clouds,0.000,0
14,Fukue,JP,2020-05-08 14:11:05,32.69,128.84,67.82,76,100,28.27,overcast clouds,0.000,0
15,Ushuaia,AR,2020-05-08 14:11:05,-54.8,-68.3,39.2,93,40,9.17,scattered clouds,0.000,0
16,Iqaluit,CA,2020-05-08 14:11:05,63.75,-68.51,30.2,50,75,16.11,broken clouds,0.000,0
17,Kapaa,US,2020-05-08 14:11:05,22.08,-159.32,71.6,68,20,17.22,few clouds,0.000,0
18,Dafeng,CN,2020-05-08 14:11:05,23.45,108.59,82.53,76,29,7.7,scattered clouds,0.000,0
19,Ilulissat,GL,2020-05-08 14:11:06,69.22,-51.1,30.2,54,5,11.41,clear sky,0.000,0
20,Marsh Harbour,BS,2020-05-08 14:11:06,26.54,-77.06,72.84,58,0,13.13,clear sky,0.000,0
21,Lagoa,PT,2020-05-08 14:11:06,39.05,-27.98,60.33,70,99,27.65,light rain,0.000,0
22,Yellowknife,CA,2020-05-08 14:10:53,62.46,-114.35,33.01,88,75,11.41,broken clouds,0.000,0
23,Olafsvik,IS,2020-05-08 14:11:06,64.89,-23.71,37.26,73,0,10.02,clear sky,0.000,0
24,Mataura,NZ,2020-05-08 14:11:06,-46.19,168.86,44.98,95,91,3.29,overcast clouds,0.000,0
25,Upernavik,GL,2020-05-08 14:11:07,72.79,-56.15,19.51,85,100,5.3,overcast clouds,0.000,0
26,Bluff,NZ,2020-05-08 14:11:07,-46.6,168.33,49.48,88,64,10.0,broken clouds,0.000,0
27,Kichera,RU,2020-05-08 14:11:07,55.94,110.1,35.35,82,44,5.21,scattered clouds,0.000,0
28,Castro,BR,2020-05-08 14:11:07,-24.79,-50.01,58.41,58,38,7.2,scattered clouds,0.000,0
29,Dikson,RU,2020-05-08 14:11:07,73.51,80.55,34.99,98,100,27.13,light rain,0.000,0
30,Orumiyeh,IR,2020-05-08 14:11:08,37.55,45.08,71.6,35,40,4.7,scattered clouds,0.000,0
31,Punta Arenas,CL,2020-05-08 14:11:08,-53.15,-70.92,37.4,100,75,4.7,broken clouds,0.000,0
32,Nemuro,JP,2020-05-08 14:11:08,43.32,145.57,48.29,65,74,8.19,broken clouds,0.000,0
33,Bethel,US,2020-05-08 14:11:08,41.37,-73.41,51.01,44,100,1.01,overcast clouds,0.000,0
34,Hithadhoo,MV,2020-05-08 14:11:08,-0.6,73.08,85.51,78,59,16.15,broken clouds,0.000,0
35,Salalah,OM,2020-05-08 14:11:08,17.02,54.09,87.8,74,0,8.05,clear sky,0.000,0
36,Cariati,IT,2020-05-08 14:11:09,39.49,16.96,69.8,43,39,10.29,scattered clouds,0.000,0
37,Vaini,TO,2020-05-08 14:11:09,-21.2,-175.2,78.8,94,75,9.17,broken clouds,0.000,0
38,Tiksi,RU,2020-05-08 14:11:09,71.69,128.87,15.64,96,100,18.19,overcast clouds,0.000,0
39,Alice Springs,AU,2020-05-08 14:11:09,-23.7,133.88,64.4,25,0,5.82,clear sky,0.000,0
40,Hobyo,SO,2020-05-08 14:11:09,5.35,48.53,87.15,65,2,11.43,clear sky,0.000,0
41,Port Elizabeth,ZA,2020-05-08 14:11:10,-33.92,25.57,69.8,77,0,8.05,clear sky,0.000,0
42,Orlovskiy,RU,2020-05-08 14:11:10,46.87,42.06,62.42,61,96,13.2,overcast clouds,0.000,0
43,Bandarbeyla,SO,2020-05-08 14:11:10,9.49,50.81,85.55,63,0,10.78,clear sky,0.000,0
44,Leh,IN,2020-05-08 14:10:03,34.17,77.58,46.4,43,46,5.93,scattered clouds,0.000,0
45,Mackenzie,CA,2020-05-08 14:11:10,55.3,-123.17,30.2,100,40,2.24,scattered clouds,0.000,0
46,Provideniya,RU,2020-05-08 14:11:10,64.38,-173.3,32.99,85,77,19.19,broken clouds,0.000,0
47,Yerbogachen,RU,2020-05-08 14:11:11,61.28,108.01,33.24,76,0,3.09,clear sky,0.000,0
48,Muros,ES,2020-05-08 14:11:11,42.78,-9.06,72.0,84,51,15.01,broken clouds,0.000,0
49,Butaritari,KI,2020-05-08 14:11:11,3.07,172.79,82.74,75,71,6.33,broken clouds,0.000,0
50,Skagen,DK,2020-05-08 14:11:11,57.72,10.58,55.0,83,0,21.99,clear sky,0.000,0
51,Faya,SA,2020-05-08 14:11:11,18.39,42.45,77.0,64,75,14.99,thunderstorm,0.000,0
52,Berdigestyakh,RU,2020-05-08 14:11:11,62.1,126.7,26.22,97,100,7.23,light snow,0.000,0
53,Alyangula,AU,2020-05-08 14:11:12,-13.85,136.42,73.4,100,90,10.67,overcast clouds,0.000,0
54,Kruisfontein,ZA,2020-05-08 14:11:12,-34.0,24.73,68.49,72,0,8.61,clear sky,0.000,0
55,Busselton,AU,2020-05-08 14:11:12,-33.65,115.33,48.99,64,1,7.99,clear sky,0.000,0
56,Atuona,PF,2020-05-08 14:11:12,-9.8,-139.03,80.98,69,99,14.94,overcast clouds,0.000,0
57,Goderich,CA,2020-05-08 14:11:12,43.75,-81.72,37.99,62,100,17.96,overcast clouds,0.000,0
58,Port Blair,IN,2020-05-08 14:11:13,11.67,92.75,84.7,78,100,6.8,moderate rain,0.000,0
59,Hobart,AU,2020-05-08 14:09:01,-42.88,147.33,53.6,71,100,6.93,overcast clouds,0.000,0
60,Montargis,FR,2020-05-08 14:11:13,47.83,2.75,78.01,51,100,2.91,light rain,0.000,0
61,Morros,BR,2020-05-08 14:11:13,-9.45,-46.3,85.48,58,100,3.44,overcast clouds,0.000,0
62,Shingu,JP,2020-05-08 14:11:13,33.73,135.98,57.04,84,100,3.29,overcast clouds,0.000,0
63,Srandakan,ID,2020-05-08 14:11:14,-7.94,110.25,79.81,88,100,6.13,overcast clouds,0.000,0
64,Longyearbyen,SJ,2020-05-08 14:11:14,78.22,15.64,28.4,63,40,8.05,scattered clouds,0.000,0
65,Ribeira Grande,PT,2020-05-08 14:11:14,38.52,-28.7,64.4,63,40,25.28,scattered clouds,0.000,0
66,Arethousa,GR,2020-05-08 14:11:14,40.74,23.59,72.0,42,0,5.99,clear sky,0.000,0
67,Broome,US,2020-05-08 14:11:14,42.25,-75.83,46.0,48,75,8.05,broken clouds,0.000,0
68,Tuktoyaktuk,CA,2020-05-08 14:11:14,69.45,-133.04,10.4,85,5,16.11,clear sky,0.000,0
69,Katiola,CI,2020-05-08 14:11:15,8.13,-5.1,89.6,59,75,2.24,broken clouds,0.000,0
70,Ayorou,NE,2020-05-08 14:11:15,14.73,0.92,106.95,7,40,6.04,scattered clouds,0.000,0
71,Mana,GF,2020-05-08 14:11:15,5.66,-53.78,81.27,76,97,11.68,overcast clouds,0.000,0
72,Kirkenaer,NO,2020-05-08 14:11:15,60.46,12.06,61.0,10,98,1.01,overcast clouds,0.000,0
73,Carnarvon,AU,2020-05-08 14:11:15,-24.87,113.63,72.39,38,100,20.98,overcast clouds,0.000,0
74,Hirara,JP,2020-05-08 14:11:16,24.8,125.28,76.51,87,11,13.47,few clouds,0.000,0
75,Lasa,IT,2020-05-08 14:11:16,46.62,10.7,60.8,55,75,9.17,broken clouds,0.000,0
76,Aneho,TG,2020-05-08 14:11:16,6.23,1.6,91.4,66,20,10.29,few clouds,0.000,0
77,Steinbach,DE,2020-05-08 14:11:16,50.17,8.57,82.0,25,100,3.36,overcast clouds,0.000,0
78,Moree,AU,2020-05-08 14:11:16,-29.47,149.85,64.4,52,75,9.62,broken clouds,0.000,0
79,Sassandra,CI,2020-05-08 14:11:16,4.95,-6.08,87.15,68,30,10.33,scattered clouds,0.000,0
80,Chicama,PE,2020-05-08 14:11:17,-7.84,-79.15,68.0,88,9,6.93,mist,0.000,0
81,Kavaratti,IN,2020-05-08 14:11:17,10.57,72.64,86.23,77,99,8.34,overcast clouds,0.000,0
82,Porto Belo,BR,2020-05-08 14:11:17,-27.16,-48.55,73.0,68,0,9.17,clear sky,0.000,0
83,Alofi,NU,2020-05-08 14:11:17,-19.06,-169.92,71.6,94,68,1.12,broken clouds,0.000,0
84,Bengkulu,ID,2020-05-08 14:11:17,-3.8,102.27,78.03,90,100,5.23,light rain,0.000,0
85,Beloha,MG,2020-05-08 14:11:18,-25.17,45.05,69.87,71,53,15.59,broken clouds,0.000,0
86,Qaanaaq,GL,2020-05-08 14:11:18,77.48,-69.36,16.52,87,95,5.53,overcast clouds,0.000,0
87,Poum,NC,2020-05-08 14:11:18,-20.23,164.02,74.98,74,18,20.96,few clouds,0.000,0
88,Airai,TL,2020-05-08 14:11:18,-8.93,125.41,57.4,100,13,3.2,few clouds,0.000,0
89,Kununurra,AU,2020-05-08 14:10:36,-15.77,128.73,68.0,68,85,4.7,overcast clouds,0.000,0
90,Glenwood Springs,US,2020-05-08 14:06:55,39.55,-107.32,37.99,49,1,4.7,clear sky,0.000,0
91,Clyde River,CA,2020-05-08 14:11:19,70.47,-68.59,17.6,78,20,19.46,few clouds,0.000,0
92,Bon Accord,CA,2020-05-08 14:11:19,53.83,-113.42,41.0,93,90,18.34,overcast clouds,0.000,0
93,Denpasar,ID,2020-05-08 14:11:19,-8.65,115.22,82.4,100,40,13.87,thunderstorm,0.000,0
94,Torbay,CA,2020-05-08 14:11:19,47.67,-52.73,48.0,93,90,11.41,light intensity drizzle,0.000,0
95,Bluefields,NI,2020-05-08 14:11:20,12.01,-83.76,82.6,81,100,10.58,light rain,0.000,0
96,Caravelas,BR,2020-05-08 14:11:20,-17.71,-39.25,71.69,89,100,11.52,light rain,0.000,0
97,Hilo,US,2020-05-08 14:11:20,19.73,-155.09,68.0,82,1,5.82,clear sky,0.000,0
98,Puerto Ayora,EC,2020-05-08 14:11:20,-0.74,-90.35,77.0,95,26,1.99,scattered clouds,0.000,0
99,San Isidro,PE,2020-05-08 14:11:21,-12.12,-77.05,68.0,88,80,5.82,broken clouds,0.000,0
100,Saint-Augustin,CA,2020-05-08 14:11:21,51.23,-58.65,34.38,97,100,7.29,light snow,0.000,0
101,New Norfolk,AU,2020-05-08 14:11:21,-42.78,147.06,51.01,76,98,2.77,overcast clouds,0.000,0
102,Thompson,CA,2020-05-08 14:11:21,55.74,-97.86,24.8,73,90,4.7,overcast clouds,0.000,0
103,Kotelnikovo,RU,2020-05-08 14:11:22,47.63,43.15,63.99,56,100,11.21,overcast clouds,0.000,0
104,Nikolskoye,RU,2020-05-08 14:11:22,59.7,30.79,53.6,40,20,11.18,few clouds,0.000,0
105,Udomlya,RU,2020-05-08 14:11:22,57.88,34.99,54.63,45,22,5.12,few clouds,0.000,0
106,Hami,CN,2020-05-08 14:11:22,42.8,93.45,64.38,23,0,1.97,clear sky,0.000,0
107,Soure,BR,2020-05-08 14:11:22,-0.72,-48.52,83.37,75,3,5.53,light rain,0.000,0
108,May Pen,JM,2020-05-08 14:11:22,17.96,-77.25,84.99,74,20,6.93,few clouds,0.000,0
109,Tasiilaq,GL,2020-05-08 14:11:23,65.61,-37.64,30.2,86,0,4.7,clear sky,0.000,0
110,Redmond,US,2020-05-08 14:07:04,47.67,-122.12,54.0,92,0,3.62,clear sky,0.000,0
111,Kysyl-Syr,RU,2020-05-08 14:11:23,63.9,122.76,23.13,96,100,10.96,light snow,0.000,0
112,Rochegda,RU,2020-05-08 14:11:23,62.8,43.25,50.7,67,97,5.14,light rain,0.000,0
113,Dingle,PH,2020-05-08 14:11:23,11.0,122.67,80.82,73,61,4.99,broken clouds,0.000,0
114,Cidreira,BR,2020-05-08 14:11:23,-30.18,-50.21,62.73,64,1,3.49,clear sky,0.000,0
115,Tukrah,LY,2020-05-08 14:11:24,32.53,20.58,67.77,45,0,18.9,clear sky,0.000,0
116,Morinville,CA,2020-05-08 14:11:24,53.8,-113.65,42.8,93,90,18.34,overcast clouds,0.000,0
117,Barrow,US,2020-05-08 14:08:09,71.29,-156.79,15.8,92,90,12.75,fog,0.000,0
118,Nouadhibou,MR,2020-05-08 14:11:24,20.93,-17.03,84.2,32,0,24.16,clear sky,0.000,0
119,Pisco,PE,2020-05-08 14:11:24,-13.7,-76.22,68.0,77,42,2.24,haze,0.000,0
120,Port Augusta,AU,2020-05-08 14:11:24,-32.5,137.77,60.8,55,0,8.05,clear sky,0.000,0
121,Placido De Castro,BR,2020-05-08 14:11:25,-10.34,-67.19,72.1,49,39,5.28,scattered clouds,0.000,0
122,Udayagiri,IN,2020-05-08 14:11:25,20.13,84.38,82.17,44,17,2.82,few clouds,0.000,0
123,Altay,CN,2020-05-08 14:11:25,47.87,88.12,56.17,37,0,5.26,clear sky,0.000,0
124,Matagami,CA,2020-05-08 14:11:25,49.75,-77.63,21.2,79,90,17.22,light snow,0.000,0
125,Rajanpur,PK,2020-05-08 14:11:25,29.1,70.33,104.45,8,0,7.7,clear sky,0.000,0
126,Cape Town,ZA,2020-05-08 14:08:07,-33.93,18.42,75.2,53,0,9.17,clear sky,0.000,0
127,Lebedinyy,RU,2020-05-08 14:11:25,58.52,125.52,26.67,97,100,7.52,light snow,0.000,0
128,Norman Wells,CA,2020-05-08 14:11:26,65.28,-126.83,32.0,87,20,4.7,few clouds,0.000,0
129,Dhidhdhoo,MV,2020-05-08 14:11:26,6.88,73.1,85.21,74,97,6.29,overcast clouds,0.000,0
130,Talnakh,RU,2020-05-08 14:11:26,69.49,88.4,35.6,93,75,26.84,light intensity shower rain,0.000,0
131,Vila Velha,BR,2020-05-08 14:11:26,-20.33,-40.29,73.4,69,40,14.99,scattered clouds,0.000,0
132,Honningsvag,NO,2020-05-08 14:11:26,70.98,25.97,37.4,59,75,16.11,broken clouds,0.000,0
133,Jamestown,US,2020-05-08 14:11:26,42.1,-79.24,37.4,44,90,5.82,overcast clouds,0.000,0
134,Mahebourg,MU,2020-05-08 14:11:27,-20.41,57.7,77.0,88,20,3.36,few clouds,0.000,0
135,Bondo,CD,2020-05-08 14:11:27,3.81,23.69,89.76,43,86,1.57,overcast clouds,0.000,0
136,East London,ZA,2020-05-08 14:11:27,-33.02,27.91,69.8,88,40,10.29,scattered clouds,0.000,0
137,Mamallapuram,IN,2020-05-08 14:11:27,12.63,80.17,89.6,66,20,10.29,few clouds,0.000,0
138,Inhambane,MZ,2020-05-08 14:08:39,-23.86,35.38,75.45,66,33,11.21,scattered clouds,0.000,0
139,Chokurdakh,RU,2020-05-08 14:11:27,70.63,147.92,19.56,96,100,8.39,overcast clouds,0.000,0
140,Lerwick,GB,2020-05-08 14:07:31,60.15,-1.15,50.0,76,20,6.93,few clouds,0.000,0
141,Geraldton,AU,2020-05-08 14:11:28,-28.77,114.6,60.8,63,0,12.75,clear sky,0.000,0
142,Avarua,CK,2020-05-08 14:11:28,-21.21,-159.78,77.0,88,2,4.7,clear sky,0.000,0
143,Saint-Philippe,RE,2020-05-08 14:11:28,-21.36,55.77,77.0,78,88,5.82,overcast clouds,0.000,0
144,Hofn,IS,2020-05-08 14:11:28,64.25,-15.21,44.6,36,20,23.04,few clouds,0.000,0
145,Pinsk,BY,2020-05-08 14:11:28,52.12,26.1,56.17,48,100,8.66,overcast clouds,0.000,0
146,Puerto Escondido,MX,2020-05-08 14:11:29,15.85,-97.07,78.8,74,40,0.72,scattered clouds,0.000,0
147,Arbazh,RU,2020-05-08 14:11:29,57.68,48.31,64.99,78,72,5.46,light rain,0.000,0
148,Vao,NC,2020-05-08 14:11:29,-22.67,167.48,73.09,77,14,24.72,few clouds,0.000,0
149,Port Lincoln,AU,2020-05-08 14:11:29,-34.73,135.87,56.91,65,77,17.69,broken clouds,0.000,0
150,Zanjan,IR,2020-05-08 14:11:30,36.67,48.48,68.0,40,20,4.7,few clouds,0.000,0
151,Georgetown,MY,2020-05-08 14:06:53,5.41,100.34,82.4,100,40,17.22,thunderstorm with rain,0.000,0
152,Den Helder,NL,2020-05-08 14:09:17,52.96,4.76,64.4,42,90,11.41,overcast clouds,0.000,0
153,Saint-Pierre,RE,2020-05-08 14:11:30,-21.34,55.48,77.0,78,83,5.82,broken clouds,0.000,0
154,Port Keats,AU,2020-05-08 14:11:30,-14.25,129.55,75.9,67,72,4.56,broken clouds,0.000,0
155,Fortuna,US,2020-05-08 14:11:30,40.6,-124.16,50.0,100,90,1.99,overcast clouds,0.000,0
156,Sao Felix Do Xingu,BR,2020-05-08 14:11:31,-6.64,-51.99,84.36,66,78,5.3,broken clouds,0.000,0
157,Port Alfred,ZA,2020-05-08 14:11:31,-33.59,26.89,68.0,88,2,4.0,clear sky,0.000,0
158,Puerto Quijarro,BO,2020-05-08 14:11:31,-17.78,-57.77,70.97,38,0,4.72,clear sky,0.000,0
159,Sao Filipe,CV,2020-05-08 14:11:31,14.9,-24.5,76.33,69,99,16.55,overcast clouds,0.000,0
160,Buraydah,SA,2020-05-08 14:11:32,26.33,43.98,98.6,23,40,16.11,dust,0.000,0
161,Srednekolymsk,RU,2020-05-08 14:11:32,67.45,153.68,26.19,96,30,7.78,scattered clouds,0.000,0
162,Batagay,RU,2020-05-08 14:11:32,67.63,134.63,26.47,98,100,3.42,overcast clouds,0.000,0
163,Zhanaozen,KZ,2020-05-08 14:11:32,43.3,52.8,71.01,59,98,18.63,overcast clouds,0.000,0
164,Padang,ID,2020-05-08 14:11:32,-0.95,100.35,80.15,77,99,3.94,overcast clouds,0.000,0
165,Gizo,SB,2020-05-08 14:11:33,-8.1,156.84,82.45,78,39,6.49,light rain,0.000,0
166,Kaitangata,NZ,2020-05-08 14:11:33,-46.28,169.85,44.01,86,89,4.0,overcast clouds,0.000,0
167,Baghdad,IQ,2020-05-08 14:11:33,33.34,44.4,93.2,17,0,4.7,clear sky,0.000,0
168,Semarang,ID,2020-05-08 14:11:33,-6.99,110.42,79.7,87,82,3.15,light rain,0.000,0
169,Kharhial,IN,2020-05-08 14:11:33,20.28,82.77,95.38,23,49,7.54,scattered clouds,0.000,0
170,Tilichiki,RU,2020-05-08 14:11:34,60.47,166.1,21.85,98,0,10.38,clear sky,0.000,0
171,Lorengau,PG,2020-05-08 14:11:34,-2.02,147.27,81.99,79,100,4.29,overcast clouds,0.000,0
172,Namibe,AO,2020-05-08 14:11:34,-15.2,12.15,96.8,47,0,19.46,clear sky,0.000,0
173,Mastic Beach,US,2020-05-08 14:11:34,40.77,-72.85,52.0,37,75,9.17,broken clouds,0.000,0
174,Olinda,BR,2020-05-08 14:11:34,-8.01,-34.86,86.0,70,40,10.29,scattered clouds,0.000,0
175,Scarborough,GB,2020-05-08 14:11:35,54.28,-0.4,70.0,62,100,3.0,overcast clouds,0.000,0
176,Mount Gambier,AU,2020-05-08 14:11:35,-37.83,140.77,51.8,100,75,11.41,broken clouds,0.000,0
177,Dandeli,IN,2020-05-08 14:11:35,15.27,74.62,84.2,66,20,6.93,few clouds,0.000,0
178,Cartagena,CO,2020-05-08 14:08:46,10.4,-75.51,84.2,89,75,3.36,haze,0.000,0
179,Kahului,US,2020-05-08 14:08:04,20.89,-156.47,69.8,88,90,6.93,moderate rain,0.000,0
180,Nalut,LY,2020-05-08 14:11:35,30.33,10.85,98.58,9,100,9.69,overcast clouds,0.000,0
181,Luanda,AO,2020-05-08 14:10:37,-8.84,13.23,86.0,74,90,3.36,overcast clouds,0.000,0
182,Katsuura,JP,2020-05-08 14:11:36,35.13,140.3,63.0,63,8,16.11,clear sky,0.000,0
183,Ploufragan,FR,2020-05-08 14:11:36,48.49,-2.79,73.0,55,100,10.29,overcast clouds,0.000,0
184,Rocha,UY,2020-05-08 14:11:36,-34.48,-54.33,58.87,61,0,8.21,clear sky,0.000,0
185,Port Hardy,CA,2020-05-08 14:11:36,50.7,-127.42,35.6,100,20,4.7,few clouds,0.000,0
186,Corrales,US,2020-05-08 14:11:36,35.24,-106.61,55.99,25,42,1.99,scattered clouds,0.000,0
187,San Quintin,MX,2020-05-08 14:11:37,30.48,-115.95,67.1,64,2,3.85,clear sky,0.000,0
188,Cayenne,GF,2020-05-08 14:11:37,4.93,-52.33,86.0,70,75,12.75,broken clouds,0.000,0
189,Tamiahua,MX,2020-05-08 14:11:37,21.27,-97.45,79.16,78,18,2.19,few clouds,0.000,0
190,Naranjal,EC,2020-05-08 14:11:37,-2.67,-79.62,81.0,83,20,4.7,few clouds,0.000,0
191,Cheremukhovo,RU,2020-05-08 14:11:37,60.35,59.99,71.02,45,88,6.91,overcast clouds,0.000,0
192,Kavieng,PG,2020-05-08 14:11:38,-2.57,150.8,83.08,72,0,7.54,clear sky,0.000,0
193,Samarai,PG,2020-05-08 14:11:38,-10.62,150.67,79.41,82,48,16.02,scattered clouds,0.000,0
194,Guerrero Negro,MX,2020-05-08 14:11:38,27.98,-114.06,67.39,63,0,4.12,clear sky,0.000,0
195,Waingapu,ID,2020-05-08 14:11:38,-9.66,120.26,77.67,79,6,8.75,clear sky,0.000,0
196,Naze,JP,2020-05-08 14:11:38,28.37,129.48,71.6,83,90,12.75,overcast clouds,0.000,0
197,Kang,BW,2020-05-08 14:11:38,-23.68,22.79,78.84,22,0,6.06,clear sky,0.000,0
198,Tignere,CM,2020-05-08 14:11:39,7.37,12.65,79.81,63,86,5.7,moderate rain,0.000,0
199,San Policarpo,PH,2020-05-08 14:11:39,12.18,125.51,82.0,77,88,6.8,overcast clouds,0.000,0
200,Camacha,PT,2020-05-08 14:11:39,33.08,-16.33,69.8,56,20,9.17,few clouds,0.000,0
201,Santiago Del Estero,AR,2020-05-08 14:11:39,-27.8,-64.26,61.18,45,0,15.3,clear sky,0.000,0
202,Diego De Almagro,CL,2020-05-08 14:11:40,-26.37,-70.05,77.43,18,0,4.72,clear sky,0.000,0
203,Ahuimanu,US,2020-05-08 14:11:40,21.44,-157.84,75.2,64,40,14.99,scattered clouds,0.000,0
204,Tevriz,RU,2020-05-08 14:11:40,57.51,72.4,69.93,39,1,3.2,clear sky,0.000,0
205,Namatanai,PG,2020-05-08 14:11:40,-3.67,152.43,80.76,76,10,6.31,clear sky,0.000,0
206,Pevek,RU,2020-05-08 14:11:40,69.7,170.31,25.39,90,0,8.23,clear sky,0.000,0
207,Datong,CN,2020-05-08 14:11:40,40.09,113.29,57.2,61,100,15.86,light rain,0.000,0
208,Awbari,LY,2020-05-08 14:11:41,26.59,12.78,100.9,8,1,11.45,clear sky,0.000,0
209,San Luis,AR,2020-05-08 14:11:41,-33.3,-66.34,64.15,36,12,13.31,few clouds,0.000,0
210,Hualmay,PE,2020-05-08 14:11:41,-11.1,-77.61,71.91,71,16,7.11,few clouds,0.000,0
211,Tiznit,MA,2020-05-08 14:11:41,29.58,-9.5,69.84,52,0,11.56,clear sky,0.000,0
212,Lebu,CL,2020-05-08 14:11:41,-37.62,-73.65,59.99,76,100,7.78,overcast clouds,0.000,0
213,Storforshei,NO,2020-05-08 14:11:41,66.4,14.52,39.2,48,40,6.93,scattered clouds,0.000,0
214,Ahipara,NZ,2020-05-08 14:11:42,-35.17,173.17,55.65,85,22,5.03,few clouds,0.000,0
215,Point Fortin,TT,2020-05-08 14:11:42,10.18,-61.68,88.0,59,99,11.34,overcast clouds,0.000,0
216,Sao Jose Da Coroa Grande,BR,2020-05-08 14:11:42,-8.9,-35.15,84.06,61,51,7.02,broken clouds,0.000,0
217,Puerto Armuelles,PA,2020-05-08 14:11:42,8.28,-82.87,80.6,83,20,2.13,few clouds,0.000,0
218,Palmer,US,2020-05-08 14:11:42,42.16,-72.33,51.01,42,20,9.17,few clouds,0.000,0
219,Mount Isa,AU,2020-05-08 14:11:43,-20.73,139.5,69.8,46,90,4.7,overcast clouds,0.000,0
220,Basoko,CD,2020-05-08 14:11:43,1.24,23.62,87.1,54,19,1.19,few clouds,0.000,0
221,Bubaque,GW,2020-05-08 14:11:43,11.28,-15.83,79.86,62,96,6.44,overcast clouds,0.000,0
222,Kampot,KH,2020-05-08 14:11:43,10.62,104.18,86.0,88,20,3.36,few clouds,0.000,0
223,Bangassou,CF,2020-05-08 14:07:03,4.74,22.82,88.68,51,66,5.91,broken clouds,0.000,0
224,Hunterville,NZ,2020-05-08 14:11:44,-39.93,175.57,55.99,88,59,1.99,broken clouds,0.000,0
225,Hasaki,JP,2020-05-08 14:11:44,35.73,140.83,57.2,81,3,5.82,clear sky,0.000,0
226,Bagan,RU,2020-05-08 14:11:44,54.1,77.66,68.14,50,0,10.07,clear sky,0.000,0
227,Rabat,MA,2020-05-08 14:09:38,33.99,-6.84,71.6,60,40,5.82,scattered clouds,0.000,0
228,Arica,CL,2020-05-08 14:11:44,-18.48,-70.3,64.4,77,23,4.7,few clouds,0.000,0
229,Sangmelima,CM,2020-05-08 14:11:44,2.93,11.98,77.38,90,97,3.0,moderate rain,0.000,0
230,Rafraf,TN,2020-05-08 14:11:45,37.19,10.18,80.6,53,100,17.22,overcast clouds,0.000,0
231,Fort Nelson,CA,2020-05-08 14:11:45,58.81,-122.7,41.0,86,75,2.3,broken clouds,0.000,0
232,Bathsheba,BB,2020-05-08 14:11:45,13.22,-59.52,87.8,58,20,20.8,few clouds,0.000,0
233,Barra Do Corda,BR,2020-05-08 14:11:45,-5.5,-45.25,87.48,66,93,2.75,overcast clouds,0.000,0
234,Lamar,US,2020-05-08 14:11:45,33.67,-95.58,63.0,93,90,14.99,overcast clouds,0.000,0
235,Nuuk,GL,2020-05-08 14:11:45,64.18,-51.72,42.8,81,75,9.17,broken clouds,0.000,0
236,Boleslawiec,PL,2020-05-08 14:11:45,51.26,15.57,73.99,31,77,8.99,broken clouds,0.000,0
237,Port Macquarie,AU,2020-05-08 14:11:46,-31.43,152.92,55.0,96,0,7.45,clear sky,0.000,0
238,Esperance,AU,2020-05-08 14:11:46,-33.87,121.9,51.8,81,40,6.93,scattered clouds,0.000,0
239,Khatanga,RU,2020-05-08 14:11:46,71.97,102.5,16.86,93,42,16.37,scattered clouds,0.000,0
240,Lavrentiya,RU,2020-05-08 14:11:46,65.58,-171.0,31.05,87,100,12.26,overcast clouds,0.000,0
241,Sitka,US,2020-05-08 14:11:46,57.05,-135.33,50.0,53,75,4.7,broken clouds,0.000,0
242,Poronaysk,RU,2020-05-08 14:11:46,49.22,143.12,47.59,74,100,6.31,light rain,0.000,0
243,Brae,GB,2020-05-08 14:11:47,60.4,-1.35,50.0,71,97,11.41,overcast clouds,0.000,0
244,Ullal,IN,2020-05-08 14:11:47,12.8,74.85,86.0,70,20,4.7,few clouds,0.000,0
245,Vila Franca Do Campo,PT,2020-05-08 14:11:47,37.72,-25.43,62.6,67,40,24.16,scattered clouds,0.000,0
246,Karasjok,NO,2020-05-08 14:11:47,69.47,25.51,42.8,45,75,19.46,broken clouds,0.000,0
247,Klaksvik,FO,2020-05-08 14:11:47,62.23,-6.59,44.6,70,100,18.34,overcast clouds,0.000,0
248,Ponta Do Sol,PT,2020-05-08 14:11:47,32.67,-17.1,71.6,64,20,14.99,few clouds,0.000,0
249,Barreirinha,BR,2020-05-08 14:11:48,-2.79,-57.07,80.92,87,100,2.28,moderate rain,0.000,0
250,Chivay,PE,2020-05-08 14:11:48,-15.64,-71.6,54.45,45,51,3.02,broken clouds,0.000,0
251,Karup,DK,2020-05-08 14:11:48,56.31,9.17,64.0,59,15,16.11,few clouds,0.000,0
252,Fairbanks,US,2020-05-08 14:11:48,64.84,-147.72,52.0,46,1,9.17,clear sky,0.000,0
253,Severo-Kurilsk,RU,2020-05-08 14:11:48,50.68,156.12,33.55,91,58,12.06,broken clouds,0.000,0
254,Taos,US,2020-05-08 14:11:48,36.41,-105.57,44.01,33,1,3.36,clear sky,0.000,0
255,Saint George,US,2020-05-08 14:07:12,37.1,-113.58,62.01,15,1,4.12,clear sky,0.000,0
256,Orange Cove,US,2020-05-08 14:11:49,36.62,-119.31,63.0,87,1,2.64,clear sky,0.000,0
257,Ushtobe,KZ,2020-05-08 14:11:49,45.25,77.98,72.0,21,100,15.08,overcast clouds,0.000,0
258,Loei,TH,2020-05-08 14:11:49,17.42,101.5,91.0,58,5,2.04,light rain,0.000,0
259,Ferry Pass,US,2020-05-08 14:10:07,30.51,-87.21,73.99,53,1,17.22,clear sky,0.000,0
260,Kungurtug,RU,2020-05-08 14:11:50,50.6,97.52,34.66,78,71,3.56,broken clouds,0.000,0
261,Staroye Drozhzhanoye,RU,2020-05-08 14:11:50,54.73,47.57,71.04,58,100,3.24,overcast clouds,0.000,0
262,Tuatapere,NZ,2020-05-08 14:11:50,-46.13,167.68,47.84,86,53,6.04,broken clouds,0.000,0
263,Khakhea,BW,2020-05-08 14:11:50,-24.69,23.49,79.63,20,0,4.07,clear sky,0.000,0
264,San Marcos,US,2020-05-08 14:11:50,33.14,-117.17,63.0,88,90,1.86,mist,0.000,0
265,Hovd,MN,2020-05-08 14:11:51,48.01,91.64,48.4,49,100,1.57,light rain,0.000,0
266,Viedma,AR,2020-05-08 14:11:51,-40.81,-63.0,61.27,39,100,19.17,overcast clouds,0.000,0
267,Lincoln,US,2020-05-08 14:11:51,40.8,-96.67,45.0,65,0,8.01,clear sky,0.000,0
268,Dingli,MT,2020-05-08 14:11:51,35.86,14.38,71.01,37,25,12.75,scattered clouds,0.000,0
269,Mumbwa,ZM,2020-05-08 14:11:51,-14.98,27.06,77.97,37,0,8.52,clear sky,0.000,0
270,Vanimo,PG,2020-05-08 14:11:51,-2.67,141.3,80.22,81,99,1.72,light rain,0.000,0
271,Hounde,BF,2020-05-08 14:11:51,11.5,-3.52,106.34,17,18,3.71,few clouds,0.000,0
272,Saskylakh,RU,2020-05-08 14:11:52,71.92,114.08,0.52,93,34,3.15,scattered clouds,0.000,0
273,Broken Hill,AU,2020-05-08 14:11:52,-31.95,141.43,62.6,33,0,8.05,clear sky,0.000,0
274,Terrace,CA,2020-05-08 14:11:52,54.52,-128.6,46.4,61,40,13.87,scattered clouds,0.000,0
275,Sarangani,PH,2020-05-08 14:11:52,5.4,125.46,84.78,75,0,8.61,clear sky,0.000,0
276,Coahuayana,MX,2020-05-08 14:11:52,18.73,-103.68,77.0,47,5,9.17,mist,0.000,0
277,Podor,MR,2020-05-08 14:11:52,16.65,-14.96,110.05,8,0,20.65,clear sky,0.000,0
278,Chuy,UY,2020-05-08 14:11:53,-33.7,-53.46,57.72,60,23,8.23,few clouds,0.000,0
279,Valley City,US,2020-05-08 14:11:53,46.92,-98.0,33.8,74,1,8.05,clear sky,0.000,0
280,Victoria,HK,2020-05-08 14:11:53,22.29,114.16,84.0,84,0,4.0,clear sky,0.000,0
281,Gasa,PS,2020-05-08 14:11:53,31.5,34.47,82.99,43,2,1.99,clear sky,0.000,0
282,Mehamn,NO,2020-05-08 14:11:53,71.04,27.85,37.4,59,75,16.11,broken clouds,0.000,0
283,Inuvik,CA,2020-05-08 14:08:48,68.35,-133.72,30.2,63,5,6.93,clear sky,0.000,0
284,Alpena,US,2020-05-08 14:11:54,45.06,-83.43,35.01,82,75,8.05,broken clouds,0.000,0
285,Vardo,NO,2020-05-08 14:11:54,70.37,31.11,39.2,64,75,14.99,broken clouds,0.000,0
286,Shenzhen,CN,2020-05-08 14:11:54,22.55,114.07,84.0,88,0,15.66,clear sky,0.000,0
287,Aksarka,RU,2020-05-08 14:11:54,66.56,67.8,47.23,97,100,9.69,overcast clouds,0.000,0
288,Puerto Ayacucho,VE,2020-05-08 14:11:54,5.66,-67.62,80.6,78,40,3.36,scattered clouds,0.000,0
289,Waipawa,NZ,2020-05-08 14:11:55,-41.41,175.52,53.6,93,66,4.7,broken clouds,0.000,0
290,Cabedelo,BR,2020-05-08 14:11:55,-6.98,-34.83,84.2,74,20,10.29,few clouds,0.000,0
291,Berlevag,NO,2020-05-08 14:11:55,70.86,29.09,37.4,59,75,16.11,broken clouds,0.000,0
292,Buala,SB,2020-05-08 14:11:55,-8.14,159.59,80.92,81,81,2.01,light rain,0.000,0
293,Miri,MY,2020-05-08 14:11:55,4.41,114.01,82.4,94,75,8.05,broken clouds,0.000,0
294,Tomohon,ID,2020-05-08 14:11:55,1.33,124.84,78.8,94,20,3.36,few clouds,0.000,0
295,Aksarayskiy,RU,2020-05-08 14:11:55,46.79,48.01,73.4,43,100,20.13,overcast clouds,0.000,0
296,Traralgon,AU,2020-05-08 14:11:56,-38.18,146.53,48.99,91,0,2.15,clear sky,0.000,0
297,Bambous Virieux,MU,2020-05-08 14:11:56,-20.34,57.76,77.0,88,20,3.36,few clouds,0.000,0
298,Sur,OM,2020-05-08 14:11:56,22.57,59.53,95.5,33,0,5.73,clear sky,0.000,0
299,Methven,NZ,2020-05-08 14:11:56,-43.63,171.65,48.0,99,35,3.24,scattered clouds,0.000,0
300,Svetlyy,RU,2020-05-08 14:11:56,54.67,20.13,55.4,71,40,13.42,scattered clouds,0.000,0
301,Diffa,NE,2020-05-08 14:11:56,13.32,12.61,107.56,13,37,12.26,scattered clouds,0.000,0
302,Ancud,CL,2020-05-08 14:11:57,-41.87,-73.82,57.99,100,90,17.22,overcast clouds,0.000,0
303,Sinnamary,GF,2020-05-08 14:11:57,5.38,-52.95,82.11,74,97,12.93,overcast clouds,0.000,0
304,Flinders,AU,2020-05-08 14:11:57,-34.58,150.86,70.0,76,0,1.01,clear sky,0.000,0
305,Valle De Allende,MX,2020-05-08 14:11:57,26.93,-105.4,68.29,43,1,4.74,clear sky,0.000,0
306,Sakyla,FI,2020-05-08 14:11:57,61.03,22.33,55.4,30,97,14.99,overcast clouds,0.000,0
307,Mar Del Plata,AR,2020-05-08 14:11:57,-38.0,-57.56,52.0,81,7,10.29,clear sky,0.000,0
308,Margate,GB,2020-05-08 14:11:58,51.38,1.39,69.8,49,100,8.05,overcast clouds,0.000,0
309,Haines Junction,CA,2020-05-08 14:11:58,60.75,-137.51,37.98,75,77,1.59,broken clouds,0.000,0
310,Takoradi,GH,2020-05-08 14:11:58,4.88,-1.76,86.09,73,60,11.18,light rain,0.000,0
311,Labuan,MY,2020-05-08 14:11:58,5.28,115.24,86.0,84,75,5.82,broken clouds,0.000,0
312,Bonavista,CA,2020-05-08 14:08:04,48.65,-53.11,37.0,82,100,4.0,overcast clouds,0.000,0
313,Sulangan,PH,2020-05-08 14:11:58,11.14,123.72,85.57,78,98,17.52,overcast clouds,0.000,0
314,Crib Point,AU,2020-05-08 14:11:59,-38.35,145.2,60.01,72,70,14.41,broken clouds,0.000,0
315,Paramonga,PE,2020-05-08 14:11:59,-10.67,-77.83,71.91,72,37,7.2,scattered clouds,0.000,0
316,Mushie,CD,2020-05-08 14:11:59,-3.02,16.9,84.85,73,97,3.04,light rain,0.000,0
317,Hukay,PH,2020-05-08 14:11:59,13.85,120.7,84.38,73,0,2.64,clear sky,0.000,0
318,Banepa,NP,2020-05-08 14:09:34,27.63,85.52,68.0,68,40,8.05,scattered clouds,0.000,0
319,Simpang,ID,2020-05-08 14:11:59,-1.27,104.08,77.27,95,100,2.42,overcast clouds,0.000,0
320,Coquimbo,CL,2020-05-08 14:12:00,-29.95,-71.34,62.91,74,6,3.33,clear sky,0.000,0
321,Taltal,CL,2020-05-08 14:12:00,-25.4,-70.48,66.69,58,22,2.71,few clouds,0.000,0
322,Kiunga,PG,2020-05-08 14:12:00,-6.12,141.29,74.53,96,86,2.77,overcast clouds,0.000,0
323,Necochea,AR,2020-05-08 14:12:00,-38.55,-58.74,61.0,66,1,11.99,clear sky,0.000,0
324,Ghazipur,IN,2020-05-08 14:12:00,25.58,83.57,94.24,16,0,8.79,clear sky,0.000,0
325,Puerto El Triunfo,SV,2020-05-08 14:12:00,13.28,-88.55,80.6,88,75,1.12,broken clouds,0.000,0
326,Mandera,KE,2020-05-08 14:12:00,3.94,41.87,90.23,48,88,12.97,overcast clouds,0.000,0
327,Aykhal,RU,2020-05-08 14:12:01,66.0,111.5,23.0,53,99,4.47,overcast clouds,0.000,0
328,Sibi,PK,2020-05-08 14:12:01,29.54,67.88,104.05,8,0,3.87,clear sky,0.000,0
329,Port Moresby,PG,2020-05-08 14:12:01,-9.44,147.18,78.8,83,75,11.41,broken clouds,0.000,0
330,Maragogi,BR,2020-05-08 14:12:01,-9.01,-35.22,83.66,62,46,6.71,scattered clouds,0.000,0
331,Otavi,NA,2020-05-08 14:12:01,-19.65,17.33,79.47,18,0,14.92,clear sky,0.000,0
332,Djibo,BF,2020-05-08 14:12:02,14.1,-1.63,105.4,9,33,0.54,scattered clouds,0.000,0
333,Dudinka,RU,2020-05-08 14:12:02,69.41,86.18,35.6,93,75,26.84,light intensity shower rain,0.000,0
334,Kargala,RU,2020-05-08 14:12:02,56.62,83.96,64.99,38,0,4.88,clear sky,0.000,0
335,Linqiong,CN,2020-05-08 14:12:02,30.42,103.46,78.8,50,100,2.24,overcast clouds,0.000,0
336,Udachnyy,RU,2020-05-08 14:12:02,66.42,112.4,23.0,53,99,4.47,overcast clouds,0.000,0
337,Codrington,AU,2020-05-08 14:12:02,-38.27,141.97,53.04,90,100,7.7,light rain,0.000,0
338,Phon,TH,2020-05-08 14:12:03,15.82,102.6,91.87,49,82,7.0,broken clouds,0.000,0
339,Baruun-Urt,MN,2020-05-08 14:12:03,46.68,113.28,52.61,39,33,7.43,scattered clouds,0.000,0
340,Leningradskiy,RU,2020-05-08 14:12:03,69.38,178.42,22.01,87,0,4.72,clear sky,0.000,0
341,Rodrigues Alves,BR,2020-05-08 14:12:03,-7.74,-72.65,70.54,63,86,4.52,overcast clouds,0.000,0
342,Muisne,EC,2020-05-08 14:12:03,0.6,-80.03,78.8,94,75,9.17,broken clouds,0.000,0
343,Blagoyevo,RU,2020-05-08 14:12:03,63.37,47.92,47.03,75,100,1.54,overcast clouds,0.000,0
344,Halberstadt,DE,2020-05-08 14:12:03,51.9,11.05,68.0,24,94,8.05,overcast clouds,0.000,0
345,Garachine,PA,2020-05-08 14:12:04,8.06,-78.36,82.67,82,100,3.74,light rain,0.000,0
346,Klyuchi,RU,2020-05-08 14:12:04,52.27,79.17,64.96,36,0,10.65,clear sky,0.000,0
347,Kon Tum,VN,2020-05-08 14:12:04,14.35,108.0,79.9,68,67,1.97,broken clouds,0.000,0
348,Cherskiy,RU,2020-05-08 14:12:04,68.75,161.3,25.07,95,53,4.43,broken clouds,0.000,0
349,Kismayo,SO,2020-05-08 14:12:04,-0.36,42.55,83.43,76,63,17.85,broken clouds,0.000,0
350,Mirabad,AF,2020-05-08 14:12:04,30.44,61.84,100.15,9,0,5.14,clear sky,0.000,0
351,Evensk,RU,2020-05-08 14:12:05,61.95,159.23,27.48,94,21,20.69,few clouds,0.000,0
352,Rio Cuarto,AR,2020-05-08 14:12:05,-33.13,-64.35,57.2,41,87,6.93,overcast clouds,0.000,0
353,Manali,IN,2020-05-08 14:12:05,13.17,80.27,89.6,66,20,10.29,few clouds,0.000,0
354,Ostrovnoy,RU,2020-05-08 14:12:05,68.05,39.51,35.37,94,97,11.21,overcast clouds,0.000,0
355,Nome,US,2020-05-08 14:12:05,64.5,-165.41,48.2,45,1,16.11,clear sky,0.000,0
356,Svetlaya,RU,2020-05-08 14:12:05,46.54,138.33,52.27,72,100,5.26,overcast clouds,0.000,0
357,Hambantota,LK,2020-05-08 14:12:06,6.12,81.12,83.3,79,49,12.41,light rain,0.000,0
358,Faanui,PF,2020-05-08 14:12:06,-16.48,-151.75,81.86,77,100,15.97,overcast clouds,0.000,0
359,Virginia Beach,US,2020-05-08 14:09:57,36.85,-75.98,63.0,54,17,1.01,few clouds,0.000,0
360,Te Anau,NZ,2020-05-08 14:12:06,-45.42,167.72,45.97,86,43,2.21,scattered clouds,0.000,0
361,Jumla,NP,2020-05-08 14:12:06,29.27,82.18,50.74,64,95,2.15,overcast clouds,0.000,0
362,Zhumadian,CN,2020-05-08 14:12:06,32.98,114.03,61.83,83,0,7.52,clear sky,0.000,0
363,Sikasso,ML,2020-05-08 14:12:07,10.92,-7.0,110.84,19,9,0.51,clear sky,0.000,0
364,Kangaatsiaq,GL,2020-05-08 14:12:07,68.31,-53.46,30.81,89,0,14.9,clear sky,0.000,0
365,Victor Harbor,AU,2020-05-08 14:12:07,-35.57,138.62,54.0,95,91,1.01,moderate rain,0.000,0
366,Floro,NO,2020-05-08 14:12:07,61.6,5.03,44.6,81,75,11.41,shower rain,0.000,0
367,Flin Flon,CA,2020-05-08 14:10:27,54.77,-101.86,32.0,85,75,8.05,broken clouds,0.000,0
368,Vestmanna,FO,2020-05-08 14:12:08,62.16,-7.17,44.6,70,100,18.34,overcast clouds,0.000,0
369,Krasnoselkup,RU,2020-05-08 14:12:08,65.7,82.47,45.25,90,49,10.74,scattered clouds,0.000,0
370,Adra,ES,2020-05-08 14:12:08,36.75,-3.02,82.4,51,26,10.29,scattered clouds,0.000,0
371,Zhigansk,RU,2020-05-08 14:12:08,66.77,123.37,19.89,96,100,20.13,light snow,0.000,0
372,Le Vauclin,MQ,2020-05-08 14:12:08,14.55,-60.84,86.0,66,75,18.34,broken clouds,0.000,0
373,Komsomolskiy,UZ,2020-05-08 14:12:09,40.43,71.72,82.4,28,98,4.7,overcast clouds,0.000,0
374,Mahina,PF,2020-05-08 14:12:09,-17.51,-149.49,78.8,83,40,2.24,scattered clouds,0.000,0
375,Cabo San Lucas,MX,2020-05-08 14:12:09,22.89,-109.91,69.01,22,5,11.27,clear sky,0.000,0
376,Fort Frances,CA,2020-05-08 14:12:09,48.6,-93.4,32.0,46,90,8.05,overcast clouds,0.000,0
377,Ust-Kan,RU,2020-05-08 14:12:09,50.93,84.76,48.87,55,0,5.19,clear sky,0.000,0
378,Kambove,CD,2020-05-08 14:12:09,-10.88,26.6,73.36,62,83,6.55,broken clouds,0.000,0
379,Rongcheng,CN,2020-05-08 14:12:10,30.63,117.85,68.25,89,97,0.63,overcast clouds,0.000,0
380,Abha,SA,2020-05-08 14:12:10,18.22,42.51,77.0,64,75,14.99,thunderstorm,0.000,0
381,Krosno Odrzanskie,PL,2020-05-08 14:12:10,52.05,15.1,73.99,28,98,5.82,overcast clouds,0.000,0
382,Mahibadhoo,MV,2020-05-08 14:12:10,3.78,72.97,84.94,76,100,13.47,overcast clouds,0.000,0
383,Kerewan,GM,2020-05-08 14:12:10,13.49,-16.09,84.2,58,100,5.82,overcast clouds,0.000,0
384,Eastbourne,GB,2020-05-08 14:07:55,50.77,0.28,71.01,42,98,6.93,overcast clouds,0.000,0
385,Qandala,SO,2020-05-08 14:12:11,11.47,49.87,89.31,55,9,6.46,clear sky,0.000,0
386,Bardiyah,LY,2020-05-08 14:12:11,31.76,25.09,66.47,57,0,18.97,clear sky,0.000,0
387,Pushchino,RU,2020-05-08 14:12:11,54.83,37.63,57.0,87,75,4.47,light rain,0.000,0
388,Maldonado,UY,2020-05-08 14:12:11,-34.67,-54.92,59.0,67,3,9.17,clear sky,0.000,0
389,Outram,MY,2020-05-08 14:09:40,1.28,103.84,86.0,74,75,6.93,broken clouds,0.000,0
390,At-Bashi,KG,2020-05-08 14:12:11,41.17,75.81,54.73,46,67,2.53,broken clouds,0.000,0
391,Saint-Francois,FR,2020-05-08 14:12:12,46.42,3.91,78.8,39,98,3.36,overcast clouds,0.000,0
392,Touba,CI,2020-05-08 14:12:12,8.28,-7.68,94.75,44,70,3.24,broken clouds,0.000,0
393,Shekhupura,PK,2020-05-08 14:12:12,31.71,73.98,93.2,32,0,3.36,clear sky,0.000,0
394,Simbakoro,SL,2020-05-08 14:12:12,8.6,-11.02,98.83,35,36,2.21,scattered clouds,0.000,0
395,Healdsburg,US,2020-05-08 14:12:12,38.61,-122.87,59.0,93,1,2.35,mist,0.000,0
396,Bilibino,RU,2020-05-08 14:12:13,68.05,166.44,20.16,92,0,2.89,clear sky,0.000,0
397,Lakatoro,VU,2020-05-08 14:12:13,-16.1,167.42,74.79,81,8,6.22,clear sky,0.000,0
398,San Patricio,MX,2020-05-08 14:12:13,19.22,-104.7,81.14,56,0,1.32,clear sky,0.000,0
399,San Jose De Sisa,PE,2020-05-08 14:12:13,-6.62,-76.69,69.8,94,90,2.19,overcast clouds,0.000,0
400,Katherine,AU,2020-05-08 14:12:13,-14.47,132.27,78.8,39,93,9.17,overcast clouds,0.000,0
401,Taoudenni,ML,2020-05-08 14:12:14,22.68,-3.98,108.61,11,62,6.69,broken clouds,0.000,0
402,Riyadh,SA,2020-05-08 14:10:56,24.69,46.72,91.4,15,99,10.29,overcast clouds,0.000,0
403,Breves,BR,2020-05-08 14:12:14,-1.68,-50.48,86.76,68,100,1.5,light rain,0.000,0
404,Comodoro Rivadavia,AR,2020-05-08 14:12:14,-45.87,-67.5,66.2,55,100,10.29,overcast clouds,0.000,0
405,Nogales,MX,2020-05-08 14:12:14,31.31,-110.94,72.0,41,1,3.36,clear sky,0.000,0
406,Merritt,CA,2020-05-08 14:12:14,50.11,-120.79,39.2,86,1,0.49,clear sky,0.000,0
407,Twin Falls,US,2020-05-08 14:07:54,42.56,-114.46,45.0,69,1,5.82,clear sky,0.000,0
408,Ayagoz,KZ,2020-05-08 14:12:15,47.97,80.44,62.73,42,50,14.5,scattered clouds,0.000,0
409,Urumqi,CN,2020-05-08 14:12:15,43.8,87.6,71.6,10,32,4.47,scattered clouds,0.000,0
410,Launceston,AU,2020-05-08 14:09:11,-41.45,147.17,52.0,93,75,10.29,light intensity shower rain,0.000,0
411,Turukhansk,RU,2020-05-08 14:12:15,65.82,87.98,40.69,95,100,17.07,moderate rain,0.000,0
412,Constantine,DZ,2020-05-08 14:11:47,36.37,6.61,89.6,27,13,3.36,few clouds,0.000,0
413,Vestmannaeyjar,IS,2020-05-08 14:10:44,63.44,-20.27,44.6,77,74,11.41,broken clouds,0.000,0
414,Jasper,US,2020-05-08 14:08:53,37.2,-94.35,54.0,87,90,21.92,overcast clouds,0.000,0
415,Pecos,US,2020-05-08 14:12:16,31.42,-103.49,66.2,24,1,16.11,clear sky,0.000,0
416,Abu Samrah,SY,2020-05-08 14:12:16,35.3,37.18,79.84,25,100,12.62,overcast clouds,0.000,0
417,Pochutla,MX,2020-05-08 14:12:16,15.74,-96.47,84.0,65,90,1.57,overcast clouds,0.000,0
418,Marawi,PH,2020-05-08 14:12:16,8.0,124.29,82.99,83,92,4.0,overcast clouds,0.000,0
419,Meulaboh,ID,2020-05-08 14:12:16,4.14,96.13,76.59,90,100,1.92,overcast clouds,0.000,0
420,Hereford,GB,2020-05-08 14:12:17,52.06,-2.71,71.01,60,98,4.97,light rain,0.000,0
421,Bowen,AU,2020-05-08 14:12:17,-20.02,148.23,69.01,93,40,5.82,scattered clouds,0.000,0
422,Erdenet,MN,2020-05-08 14:12:17,49.03,104.08,33.08,90,33,12.53,scattered clouds,0.000,0
423,Kralendijk,BQ,2020-05-08 14:12:17,12.15,-68.27,84.2,70,20,21.92,few clouds,0.000,0
424,Havoysund,NO,2020-05-08 14:12:17,71.0,24.66,33.8,69,75,18.34,broken clouds,0.000,0
425,Valparaiso,CL,2020-05-08 14:08:43,-33.04,-71.63,55.4,100,90,3.78,fog,0.000,0
426,Kayerkan,RU,2020-05-08 14:12:17,69.35,87.76,35.6,93,75,26.84,light intensity shower rain,0.000,0
427,Shache,CN,2020-05-08 14:12:18,38.42,77.24,67.37,43,100,1.79,overcast clouds,0.000,0
428,Beinamar,TD,2020-05-08 14:12:18,8.67,15.38,96.6,32,77,0.25,broken clouds,0.000,0
429,College,US,2020-05-08 14:12:18,64.86,-147.8,51.8,43,75,9.17,broken clouds,0.000,0
430,Axim,GH,2020-05-08 14:12:18,4.87,-2.24,86.99,67,64,10.36,light rain,0.000,0
431,High Level,CA,2020-05-08 14:12:18,58.52,-117.14,41.0,75,75,2.24,smoke,0.000,0
432,Ormara,PK,2020-05-08 14:12:18,25.21,64.64,84.0,82,48,10.16,scattered clouds,0.000,0
433,Balkanabat,TM,2020-05-08 14:12:19,39.51,54.37,65.37,66,84,18.61,broken clouds,0.000,0
434,Rawlins,US,2020-05-08 14:12:19,41.79,-107.24,35.6,69,1,8.05,clear sky,0.000,0
435,Oshnaviyeh,IR,2020-05-08 14:12:19,37.04,45.1,71.6,35,40,4.7,scattered clouds,0.000,0
436,Rincon,US,2020-05-08 14:12:19,32.3,-81.24,68.0,49,20,10.29,few clouds,0.000,0
437,Yarkovo,RU,2020-05-08 14:12:19,57.4,67.08,72.48,33,42,3.42,scattered clouds,0.000,0
438,Touros,BR,2020-05-08 14:12:19,-5.2,-35.46,86.0,70,40,9.17,scattered clouds,0.000,0
439,Nurota,UZ,2020-05-08 14:12:20,40.56,65.69,78.8,41,61,6.93,light rain,0.000,0
440,Maniitsoq,GL,2020-05-08 14:12:20,65.42,-52.9,38.07,71,100,7.85,overcast clouds,0.000,0
441,Beringovskiy,RU,2020-05-08 14:12:06,63.05,179.32,30.38,98,100,9.17,snow,0.000,0
442,Ashcroft,CA,2020-05-08 14:12:20,50.72,-121.29,42.8,81,5,4.7,clear sky,0.000,0
443,Ballina,AU,2020-05-08 14:10:37,-28.87,153.57,64.4,82,100,4.7,overcast clouds,0.000,0
444,Zhezkazgan,KZ,2020-05-08 14:12:20,47.8,67.71,74.43,21,100,12.5,overcast clouds,0.000,0
445,Sharjah,AE,2020-05-08 14:08:13,25.36,55.4,95.0,26,1,17.22,clear sky,0.000,0
446,Hamilton,US,2020-05-08 14:10:30,39.18,-84.53,51.01,87,90,8.05,moderate rain,0.000,0
447,Gwanda,ZW,2020-05-08 14:12:21,-20.93,29.0,75.54,34,0,11.1,clear sky,0.000,0
448,Giyani,ZA,2020-05-08 14:12:21,-23.3,30.72,75.94,48,2,4.34,clear sky,0.000,0
449,Naron,ES,2020-05-08 14:12:21,43.52,-8.15,62.6,82,40,9.17,scattered clouds,0.000,0
450,Bilma,NE,2020-05-08 14:12:21,18.69,12.92,104.0,7,0,1.3,clear sky,0.000,0
451,Rawson,AR,2020-05-08 14:12:22,-43.3,-65.1,68.95,32,96,6.44,overcast clouds,0.000,0
452,La Ronge,CA,2020-05-08 14:12:22,55.1,-105.28,33.8,74,90,4.7,overcast clouds,0.000,0
453,Dalvik,IS,2020-05-08 14:12:22,65.97,-18.53,37.4,64,75,14.99,light snow,0.000,0
454,Mandalgovi,MN,2020-05-08 14:12:22,45.76,106.27,49.78,48,69,14.27,broken clouds,0.000,0
455,Tornio,FI,2020-05-08 14:12:22,65.85,24.15,39.2,60,83,10.29,broken clouds,0.000,0
456,Mashhad,IR,2020-05-08 14:11:30,36.3,59.61,80.6,28,20,9.17,few clouds,0.000,0
457,Sabile,LV,2020-05-08 14:12:22,57.05,22.57,57.18,54,79,11.7,broken clouds,0.000,0
458,Iquique,CL,2020-05-08 14:12:23,-20.22,-70.14,66.2,68,0,5.82,clear sky,0.000,0
459,Tulle,FR,2020-05-08 14:12:23,45.33,1.83,77.0,72,1,1.99,clear sky,0.000,0
460,Palatka,US,2020-05-08 14:12:23,29.65,-81.64,66.99,48,1,9.17,clear sky,0.000,0
461,Oga,IT,2020-05-08 14:12:23,46.46,10.35,60.8,41,100,17.22,overcast clouds,0.000,0
462,Pacific Grove,US,2020-05-08 14:12:23,36.62,-121.92,55.0,81,20,3.36,few clouds,0.000,0
463,Atar,MR,2020-05-08 14:12:23,20.52,-13.05,104.04,9,0,12.39,clear sky,0.000,0
464,Raga,SS,2020-05-08 14:12:23,8.46,25.68,75.42,82,76,12.91,moderate rain,0.000,0
465,Privolzhskiy,RU,2020-05-08 14:12:24,51.4,46.03,60.03,82,100,4.38,overcast clouds,0.000,0
466,Kirensk,RU,2020-05-08 14:12:24,57.79,108.11,37.87,66,0,3.69,clear sky,0.000,0
467,Darhan,MN,2020-05-08 14:12:24,49.49,105.92,39.61,81,100,14.34,snow,0.000,0
468,Marsa Matruh,EG,2020-05-08 14:12:24,31.35,27.25,68.0,68,40,18.34,scattered clouds,0.000,0
469,Charters Towers,AU,2020-05-08 14:12:24,-20.1,146.27,64.02,90,0,8.57,clear sky,0.000,0
470,Pueblo,US,2020-05-08 14:12:25,38.25,-104.61,44.6,52,90,12.75,overcast clouds,0.000,0
471,Live Oak,US,2020-05-08 14:12:25,36.98,-121.98,69.01,87,1,2.71,clear sky,0.000,0
472,Manitouwadge,CA,2020-05-08 14:12:25,49.12,-85.84,21.2,57,90,13.87,light snow,0.000,0
473,Mayumba,GA,2020-05-08 14:12:25,-3.43,10.66,83.03,79,31,8.43,light rain,0.000,0
474,Deputatskiy,RU,2020-05-08 14:12:25,69.3,139.9,23.5,99,100,6.24,light snow,0.000,0
475,Cherdyn,RU,2020-05-08 14:12:25,60.4,56.48,66.25,60,97,5.77,overcast clouds,0.000,0
476,Waghai,IN,2020-05-08 14:10:12,20.77,73.48,85.21,46,0,6.78,clear sky,0.000,0
477,Poli,TZ,2020-05-08 14:12:25,-3.33,36.8,77.0,73,75,6.24,broken clouds,0.000,0
478,Labuhan,ID,2020-05-08 14:12:27,-6.88,112.21,81.63,85,88,6.98,light rain,0.000,0
479,Biloela,AU,2020-05-08 14:12:27,-24.42,150.5,59.2,76,0,6.15,clear sky,0.000,0
480,Biak,ID,2020-05-08 14:12:27,-0.91,122.88,79.74,79,5,3.91,clear sky,0.000,0
481,Clonakilty,IE,2020-05-08 14:12:27,51.62,-8.87,63.0,82,75,9.17,broken clouds,0.000,0
482,Gladstone,AU,2020-05-08 14:09:21,-23.85,151.25,66.2,82,75,4.7,broken clouds,0.000,0
483,Shiyan,CN,2020-05-08 14:12:28,32.65,110.78,70.21,65,93,3.56,overcast clouds,0.000,0
484,Odweyne,SO,2020-05-08 14:12:28,9.41,45.06,84.18,46,97,8.55,overcast clouds,0.000,0
485,Aguimes,ES,2020-05-08 14:12:28,27.91,-15.45,75.2,57,20,27.51,few clouds,0.000,0
486,Kulhudhuffushi,MV,2020-05-08 14:12:28,6.62,73.07,85.08,73,98,6.06,overcast clouds,0.000,0
487,Khash,IR,2020-05-08 14:12:28,28.22,61.22,88.12,12,0,14.03,clear sky,0.000,0
488,Nha Trang,VN,2020-05-08 14:12:29,12.25,109.18,87.8,84,20,6.93,few clouds,0.000,0
489,Itarema,BR,2020-05-08 14:12:29,-2.92,-39.92,85.24,72,100,6.78,overcast clouds,0.000,0
490,Portobelo,PA,2020-05-08 14:12:29,9.55,-79.65,87.01,78,20,3.36,few clouds,0.000,0
491,Tete,MZ,2020-05-08 14:12:29,-16.16,33.59,84.2,42,40,8.05,scattered clouds,0.000,0
492,Yanam,IN,2020-05-08 14:09:16,16.73,82.22,83.39,80,55,6.73,broken clouds,0.000,0
493,Bismarck,US,2020-05-08 14:11:28,46.81,-100.78,43.0,59,1,5.17,clear sky,0.000,0
494,Kathmandu,NP,2020-05-08 14:10:11,27.72,85.32,68.0,68,40,8.05,scattered clouds,0.000,0
495,Rawah,IQ,2020-05-08 14:12:30,34.48,41.91,89.38,14,0,12.06,clear sky,0.000,0
496,Brigantine,US,2020-05-08 14:12:30,39.41,-74.36,57.2,47,1,8.05,clear sky,0.000,0
497,San Francisco,US,2020-05-08 14:12:30,37.77,-122.42,57.99,81,75,6.93,broken clouds,0.000,0
498,Jinxi,CN,2020-05-08 14:12:31,30.43,116.29,69.91,87,98,5.01,overcast clouds,0.000,0
499,Cap Malheureux,MU,2020-05-08 14:12:31,-19.98,57.61,77.0,82,5,3.0,light rain,0.000,0
500,Arman,RU,2020-05-08 14:12:31,59.7,150.17,33.01,90,25,1.79,scattered clouds,0.000,0
501,Sao Joao Da Barra,BR,2020-05-08 14:12:31,-21.64,-41.05,75.2,60,100,6.93,overcast clouds,0.000,0
502,Aflao,TG,2020-05-08 14:12:32,6.12,1.19,91.4,66,20,10.29,few clouds,0.000,0
503,Dongsheng,CN,2020-05-08 14:12:32,39.82,109.98,53.4,42,99,8.81,overcast clouds,0.000,0
504,Mazagao,BR,2020-05-08 14:09:17,-0.12,-51.29,86.0,79,75,9.17,broken clouds,0.000,0
505,Visnes,NO,2020-05-08 14:12:32,59.36,5.22,51.01,76,40,14.99,light intensity shower rain,0.000,0
506,Dali,CN,2020-05-08 14:10:32,25.7,100.18,61.88,62,0,6.24,clear sky,0.000,0
507,Saint Anthony,US,2020-05-08 14:12:33,45.02,-93.22,37.99,40,1,13.87,clear sky,0.000,0
508,Sobolevo,RU,2020-05-08 14:12:33,54.43,31.9,53.8,49,22,8.66,few clouds,0.000,0
509,Santa Cruz De La Palma,ES,2020-05-08 14:12:33,28.68,-17.76,73.4,64,40,4.7,scattered clouds,0.000,0
510,Hay River,CA,2020-05-08 14:12:33,60.82,-115.8,37.4,85,40,5.82,scattered clouds,0.000,0
511,Filadelfia,US,2020-05-08 14:11:35,39.95,-75.16,54.0,46,75,5.82,broken clouds,0.000,0
512,Casper,US,2020-05-08 14:08:03,42.87,-106.31,28.4,92,1,4.7,clear sky,0.000,0
513,Luderitz,NA,2020-05-08 14:12:34,-26.65,15.16,77.0,41,0,11.41,clear sky,0.000,0
514,Lompoc,US,2020-05-08 14:07:39,34.64,-120.46,57.0,81,1,4.7,clear sky,0.000,0
515,Fort Saint James,CA,2020-05-08 14:12:34,54.43,-124.25,41.81,83,96,1.54,overcast clouds,0.000,0
516,Tateyama,JP,2020-05-08 14:12:34,34.98,139.87,64.0,92,91,5.01,overcast clouds,0.000,0
517,Colares,PT,2020-05-08 14:12:34,38.8,-9.45,70.0,68,75,8.05,broken clouds,0.000,0
518,Reconquista,AR,2020-05-08 14:12:35,-29.15,-59.65,58.87,54,0,8.63,clear sky,0.000,0
519,Sorland,NO,2020-05-08 14:11:34,67.67,12.69,37.4,69,40,14.99,scattered clouds,0.000,0
520,Tsevie,TG,2020-05-08 14:12:35,6.43,1.21,91.4,66,20,10.29,few clouds,0.000,0
521,Souillac,MU,2020-05-08 14:12:35,-20.52,57.52,77.0,88,20,3.36,few clouds,0.000,0
522,Yurga,RU,2020-05-08 14:12:35,55.72,84.89,55.44,55,0,4.68,clear sky,0.000,0
523,Daru,PG,2020-05-08 14:12:36,-9.08,143.21,79.65,82,45,12.21,scattered clouds,0.000,0
524,Boyolangu,ID,2020-05-08 14:12:36,-8.12,111.89,78.1,90,100,2.55,light rain,0.000,0
525,Bandipur,NP,2020-05-08 14:12:36,27.93,84.42,69.69,40,0,1.36,clear sky,0.000,0
526,Sidmouth,GB,2020-05-08 14:11:40,50.69,-3.24,70.0,37,64,9.17,broken clouds,0.000,0
527,Bonthe,SL,2020-05-08 14:12:37,7.53,-12.51,88.12,66,99,10.6,overcast clouds,0.000,0
528,Port-Gentil,GA,2020-05-08 14:12:37,-0.72,8.78,87.8,74,40,4.7,scattered clouds,0.000,0
529,Celestun,MX,2020-05-08 14:12:37,20.87,-90.4,79.23,66,100,9.46,overcast clouds,0.000,0
530,Aksu,CN,2020-05-08 14:12:37,41.12,80.26,70.25,25,85,1.81,overcast clouds,0.000,0
531,Abu Dhabi,AE,2020-05-08 14:12:38,24.47,54.37,91.4,36,0,16.11,clear sky,0.000,0
532,Belmonte,BR,2020-05-08 14:12:38,-15.86,-38.88,73.4,83,75,6.93,broken clouds,0.000,0
533,Karratha,AU,2020-05-08 14:12:38,-20.74,116.85,77.47,68,0,6.69,clear sky,0.000,0
534,Santa Rosa,PH,2020-05-08 14:12:38,14.31,121.11,88.0,74,40,5.82,scattered clouds,0.000,0
535,Noshiro,JP,2020-05-08 14:12:38,40.2,140.02,50.13,65,100,1.48,overcast clouds,0.000,0
536,Nadym,RU,2020-05-08 14:12:38,65.53,72.52,54.05,77,100,16.37,overcast clouds,0.000,0
537,Beyneu,KZ,2020-05-08 14:12:39,45.32,55.2,81.16,26,46,6.15,scattered clouds,0.000,0
538,Waw,SS,2020-05-08 14:10:05,7.7,28.0,85.42,58,85,5.59,light rain,0.000,0
539,Andros Town,BS,2020-05-08 14:12:39,24.7,-77.77,77.0,50,20,10.29,few clouds,0.000,0
540,Acapulco,MX,2020-05-08 14:11:51,16.86,-99.89,73.4,78,40,2.24,haze,0.000,0
541,Kutum,SD,2020-05-08 14:12:39,14.2,24.67,92.37,12,93,18.37,overcast clouds,0.000,0
542,San Cristobal,VE,2020-05-08 14:12:39,7.77,-72.22,87.8,52,20,4.7,few clouds,0.000,0
543,Turka,UA,2020-05-08 14:12:40,49.15,23.03,63.0,35,76,1.99,broken clouds,0.000,0
544,Naliya,IN,2020-05-08 14:12:40,23.27,68.83,83.98,76,0,12.41,clear sky,0.000,0
545,Tabou,CI,2020-05-08 14:12:40,4.42,-7.35,85.77,71,81,9.64,broken clouds,0.000,0
546,Kalianget,ID,2020-05-08 14:12:41,-7.05,113.93,83.64,80,73,10.25,broken clouds,0.000,0
547,Bentiu,SS,2020-05-08 14:12:41,9.23,29.83,96.89,32,74,5.7,broken clouds,0.000,0
548,Acarau,BR,2020-05-08 14:12:42,-2.89,-40.12,84.92,71,100,5.39,overcast clouds,0.000,0
549,Korla,CN,2020-05-08 14:12:42,41.76,86.15,69.08,22,2,8.41,clear sky,0.000,0
550,Dauriya,RU,2020-05-08 14:12:42,49.93,116.87,54.48,36,93,6.85,overcast clouds,0.000,0
551,The Pas,CA,2020-05-08 14:12:42,53.83,-101.25,30.2,68,90,10.29,overcast clouds,0.000,0
552,Tondano,ID,2020-05-08 14:12:43,1.3,124.91,78.8,94,20,3.36,few clouds,0.000,0
553,Anadyr,RU,2020-05-08 14:08:03,64.75,177.48,39.2,64,100,17.9,overcast clouds,0.000,0
554,Arcata,US,2020-05-08 14:12:43,40.87,-124.08,51.01,100,90,3.36,overcast clouds,0.000,0
555,Talara,PE,2020-05-08 14:12:43,-4.58,-81.27,78.8,57,9,17.22,clear sky,0.000,0
556,Zilair,RU,2020-05-08 14:12:43,52.23,57.44,66.6,34,0,7.83,clear sky,0.000,0
557,Republic,US,2020-05-08 14:12:43,37.12,-93.48,52.0,87,90,26.4,light rain,0.000,0
558,Gagino,RU,2020-05-08 14:12:44,55.23,45.03,59.04,91,100,3.94,light rain,0.000,0
559,Chestermere,CA,2020-05-08 14:12:44,51.03,-113.82,44.01,87,90,14.99,shower rain,0.000,0
